{"type":"FeatureCollection","features":[{"geometry":{"type":"Point","coordinates":[-89.928,35.078]},"type":"Feature","id":"6d8c2be451","clipped":true,"properties":{"city":"Memphis","name":"Walmart Distribution Center","area":"93,100","country":"United States","year_opened":2011.000,"state":"Tennessee","postal_code":"38111","owner":"Walmart","id":172,"street_address":"1980 Getwell Road","description":"3PL is Linc Logistics Insight Corp."}},{"geometry":{"type":"Point","coordinates":[-86.461,35.565]},"type":"Feature","id":"8491cd76d6","clipped":true,"properties":{"city":"Shelbyville","name":"Walmart Distribution Center","area":"850,000","country":"United States","year_opened":2001.000,"state":"Tennessee","postal_code":"37160","owner":"Walmart","id":137,"street_address":"285 Frank Martin Road","description":"Originally constructed as a Perishables facility of 370,000 sq ft. Facility was expanded in Nov 2005."}},{"geometry":{"type":"Point","coordinates":[-88.977,34.499]},"type":"Feature","id":"71b0b3b8f7","clipped":true,"properties":{"city":"Albany","name":"Walmart Distribution Center","area":"867,000","country":"United States","year_opened":1996.000,"state":"Mississippi","postal_code":"38652","owner":"Walmart","id":125,"street_address":"973 Highway 30","description":null}},{"geometry":{"type":"Point","coordinates":[-85.324,32.700]},"type":"Feature","id":"9fa1ab463d","clipped":true,"properties":{"city":"Opelika","name":"Walmart Distribution Center","area":"880,000","country":"United States","year_opened":2000.000,"state":"Alabama","postal_code":"36801","owner":"Walmart","id":111,"street_address":"2701 Andrews Road","description":"Originally constructed to 450,000 sq ft."}},{"geometry":{"type":"Point","coordinates":[-85.124,33.636]},"type":"Feature","id":"544ac12e4d","clipped":true,"properties":{"city":"Carrollton","name":"Walmart Distribution Center","area":"1,000,000","country":"United States","year_opened":2002.000,"state":"Georgia","postal_code":"30117","owner":"Walmart","id":90,"street_address":"3101 U.S. 27","description":"Dedicated Walmart.com distribution center."}},{"geometry":{"type":"Point","coordinates":[-84.944,33.746]},"type":"Feature","id":"46c267588b","clipped":true,"properties":{"city":"Villa Rica","name":"Walmart Distribution Center","area":"60,000","country":"United States","year_opened":1995.000,"state":"Georgia","postal_code":"30180","owner":"Walmart","id":51,"street_address":"140 Fleet Drive","description":"Sam's Crossdock facility run by 3PL SaddleCreek Logistics."}},{"geometry":{"type":"Point","coordinates":[-84.959,33.034]},"type":"Feature","id":"3719c331de","clipped":true,"properties":{"city":null,"name":"Walmart Distribution Center","area":"1,130,000","country":"United States","year_opened":2000.000,"state":"Georgia","postal_code":"30241","owner":"Walmart","id":14,"street_address":"385 Callaway Church Road","description":"General Merchandise RDC built for $55 Million."}},{"geometry":{"type":"Point","coordinates":[-86.845,34.139]},"type":"Feature","id":"c468e052f9","clipped":true,"properties":{"city":"Cullman","name":"Walmart Distribution Center","area":"1,200,000","country":"United States","year_opened":1983.000,"state":"Alabama","postal_code":"35055","owner":"Walmart","id":1,"street_address":"2200 7th Avenue Southwest","description":"Originally constructed to 900,000 sq ft and expanded to 1.2M sq ft in 1988. 11 miles of conveyors."}},{"geometry":{"type":"Point","coordinates":[-86.748,34.699]},"type":"Feature","id":"ad78b4c7a9","clipped":true,"properties":{"city":"Madison","name":"Target Distribution Center","area":"Unknown","country":"United States","year_opened":null,"state":"Alabama","postal_code":"35758","owner":"Target","id":203,"street_address":"327-399 Church Street","description":null}},{"geometry":{"type":"Point","coordinates":[-84.533,33.616]},"type":"Feature","id":"ad619a16e7","clipped":true,"properties":{"city":"Atlanta","name":"Costco Distribution Center","area":"Unknown","country":"United States","year_opened":null,"state":"Georgia","postal_code":"30349","owner":"Costco","id":238,"street_address":"4250 South Fulton Parkway","description":null}},{"geometry":{"type":"Point","coordinates":[-84.900,35.136]},"type":"Feature","id":"7cc8317bf9","clipped":true,"properties":{"city":"Cleveland","name":"Peyton's Southeastern Distribution Center","area":"Unknown","country":"United States","year_opened":null,"state":"Tennessee","postal_code":"37311","owner":"Krogers","id":228,"street_address":"153 Refreshment Lane Southwest","description":null}},{"geometry":{"type":"Point","coordinates":[-89.931,35.025]},"type":"Feature","id":"58966e3095","clipped":true,"properties":{"city":"Memphis","name":"Kroger Distribution Center","area":"Unknown","country":"United States","year_opened":null,"state":"Tennessee","postal_code":"38118","owner":"Krogers","id":214,"street_address":"4524 Delp Street","description":null}},{"geometry":{"type":"Point","coordinates":[-89.869,35.011]},"type":"Feature","id":"e925922a89","clipped":true,"properties":{"city":"Memphis","name":"Kroger Distribution Center","area":"Unknown","country":"United States","year_opened":null,"state":"Tennessee","postal_code":"38141","owner":"Krogers","id":213,"street_address":"5079 Bledsoe Road","description":null}},{"geometry":{"type":"Point","coordinates":[-87.014,35.672]},"type":"Feature","id":"b39c626557","clipped":true,"properties":{"city":"Columbia","name":"Home Depot Distribution Center","area":"Unknown","country":"United States","year_opened":null,"state":"Tennessee","postal_code":"38401","owner":"Home Depot","id":392,"street_address":"1701 North Claton Drive","description":""}},{"geometry":{"type":"Point","coordinates":[-87.029,33.320]},"type":"Feature","id":"bd5f3d3a2f","clipped":true,"properties":{"city":"McCall","name":"Home Depot Rapid Deployment Center","area":"Unknown","country":"United States","year_opened":null,"state":"Alabama","postal_code":"35111","owner":"Home Depot","id":338,"street_address":"6400 Jefferson Metro Parkway","description":""}},{"geometry":{"type":"Point","coordinates":[-86.405,36.127]},"type":"Feature","id":"623465a697","clipped":true,"properties":{"city":"Mount Juliet","name":"Amazon Distribution Center #BNA2","area":"Unknown","country":"United States","year_opened":null,"state":"Tennessee","postal_code":"37122","owner":"Amazon","id":323,"street_address":"Duke Drive","description":null}},{"geometry":{"type":"Point","coordinates":[-84.813,35.283]},"type":"Feature","id":"054f26fb26","clipped":true,"properties":{"city":"Charleston","name":"Amazon Distribution Center #CHA2","area":"Unknown","country":"United States","year_opened":null,"state":"Tennessee","postal_code":"37310","owner":"Amazon","id":322,"street_address":"225 Infinity Drive","description":null}},{"geometry":{"type":"Point","coordinates":[-86.406,36.131]},"type":"Feature","id":"d1a08288df","clipped":true,"properties":{"city":"Lebanon","name":"Amazon Distribution Center #BNA1","area":"Unknown","country":"United States","year_opened":null,"state":"Tennessee","postal_code":"37090","owner":"Amazon","id":321,"street_address":"14840 Central Pike","description":null}},{"geometry":{"type":"Point","coordinates":[-86.365,35.782]},"type":"Feature","id":"d80124e19a","clipped":true,"properties":{"city":"Murfreesboro","name":"Amazon Distribution Center #BNA3","area":"Unknown","country":"United States","year_opened":null,"state":"Tennessee","postal_code":"37127","owner":"Amazon","id":320,"street_address":"2020 Joe B Jackson Parkway","description":null}},{"geometry":{"type":"Point","coordinates":[-85.141,35.068]},"type":"Feature","id":"ba530e4211","clipped":true,"properties":{"city":"Ogallala","name":"Amazon Distribution Center #CHA1","area":"Unknown","country":"United States","year_opened":null,"state":"Tennessee","postal_code":"37421","owner":"Amazon","id":319,"street_address":"7200 Discovery Drive","description":null}}]}