{"type":"FeatureCollection","features":[{"geometry":{"type":"Point","coordinates":[-89.928,35.078]},"type":"Feature","id":"6d8c2be451","clipped":true,"properties":{"city":"Memphis","name":"Walmart Distribution Center","area":"93,100","country":"United States","year_opened":2011.000,"state":"Tennessee","postal_code":"38111","owner":"Walmart","id":172,"street_address":"1980 Getwell Road","description":"3PL is Linc Logistics Insight Corp."}},{"geometry":{"type":"Point","coordinates":[-80.688,35.384]},"type":"Feature","id":"7fc66f41d1","clipped":true,"properties":{"city":"Concord","name":"Walmart Distribution Center","area":"104,380","country":"United States","year_opened":2011.000,"state":"North Carolina","postal_code":"28027","owner":"Walmart","id":170,"street_address":"423 Pitts School Road Northwest","description":"3PL is Distribution Technology Inc."}},{"geometry":{"type":"Point","coordinates":[-84.337,33.638]},"type":"Feature","id":"dc6c635f2a","clipped":true,"properties":{"city":"Conley","name":"Walmart Distribution Center","area":"53,360","country":"United States","year_opened":2011.000,"state":"Georgia","postal_code":null,"owner":"Walmart","id":167,"street_address":"","description":"3PL is Exel Logistics."}},{"geometry":{"type":"Point","coordinates":[-81.834,32.392]},"type":"Feature","id":"0c8b08cbb0","clipped":true,"properties":{"city":"Antlers","name":"Walmart Distribution Center","area":"2,200,000","country":"United States","year_opened":1995.000,"state":"Georgia","postal_code":"30458","owner":"Walmart","id":159,"street_address":"299 Aj Riggs Road","description":"Started as a 1,700,000 sq ft DC and later expanded by 500,000 in 1999."}},{"geometry":{"type":"Point","coordinates":[-79.267,36.096]},"type":"Feature","id":"46e3a2759f","clipped":true,"properties":{"city":"Mebane","name":"Walmart Distribution Center","area":"450,000","country":"United States","year_opened":null,"state":"North Carolina","postal_code":null,"owner":"Walmart","id":153,"street_address":"","description":"Perishables distribution center with construction set to begin in 2015. Anticipated go-live in mid-2016. 450 jobs."}},{"geometry":{"type":"Point","coordinates":[-86.461,35.565]},"type":"Feature","id":"8491cd76d6","clipped":true,"properties":{"city":"Shelbyville","name":"Walmart Distribution Center","area":"850,000","country":"United States","year_opened":2001.000,"state":"Tennessee","postal_code":"37160","owner":"Walmart","id":137,"street_address":"285 Frank Martin Road","description":"Originally constructed as a Perishables facility of 370,000 sq ft. Facility was expanded in Nov 2005."}},{"geometry":{"type":"Point","coordinates":[-80.413,34.800]},"type":"Feature","id":"21dfccf7e5","clipped":true,"properties":{"city":"Page","name":"Walmart Distribution Center","area":"830,000","country":"United States","year_opened":1997.000,"state":"South Carolina","postal_code":"29728","owner":"Walmart","id":136,"street_address":"160 State Road S-13-682","description":"Facility was expanded in 2003."}},{"geometry":{"type":"Point","coordinates":[-80.740,40.415]},"type":"Feature","id":"d82767d258","clipped":true,"properties":{"city":"Wintersville","name":"Walmart Distribution Center","area":"880,000","country":"United States","year_opened":2003.000,"state":"Ohio","postal_code":"43952","owner":"Walmart","id":131,"street_address":"843 Route 43","description":null}},{"geometry":{"type":"Point","coordinates":[-83.399,39.520]},"type":"Feature","id":"cdb14cbb33","clipped":true,"properties":{"city":"Washington","name":"Walmart Distribution Center","area":"880,000","country":"United States","year_opened":2002.000,"state":"Ohio","postal_code":"43160","owner":"Walmart","id":130,"street_address":"1400 Old Chillicothe Road Southeast","description":null}},{"geometry":{"type":"Point","coordinates":[-88.977,34.499]},"type":"Feature","id":"71b0b3b8f7","clipped":true,"properties":{"city":"Albany","name":"Walmart Distribution Center","area":"867,000","country":"United States","year_opened":1996.000,"state":"Mississippi","postal_code":"38652","owner":"Walmart","id":125,"street_address":"973 Highway 30","description":null}},{"geometry":{"type":"Point","coordinates":[-84.146,37.148]},"type":"Feature","id":"2998c82853","clipped":true,"properties":{"city":"London","name":"Walmart Distribution Center","area":"867,000","country":"United States","year_opened":1995.000,"state":"Kentucky","postal_code":"40741","owner":"Walmart","id":121,"street_address":"3701 Russell Dyche Memorial Highway","description":"Walmart's 3rd Grocery distribution center."}},{"geometry":{"type":"Point","coordinates":[-85.583,40.473]},"type":"Feature","id":"513db3aa5b","clipped":true,"properties":{"city":"Gas City","name":"Walmart Distribution Center","area":"990,000","country":"United States","year_opened":2007.000,"state":"Indiana","postal_code":"46933","owner":"Walmart","id":120,"street_address":"100 Fisher Parkway","description":"Swisslog automation in the Perishables complex."}},{"geometry":{"type":"Point","coordinates":[-88.085,38.731]},"type":"Feature","id":"ef6cd5f587","clipped":true,"properties":{"city":"Olney","name":"Walmart Distribution Center","area":"933,100","country":"United States","year_opened":1997.000,"state":"Illinois","postal_code":"62450","owner":"Walmart","id":118,"street_address":"","description":"Originally constructed as a Perishables DC at 480,000 sq ft . Expanded in 2003."}},{"geometry":{"type":"Point","coordinates":[-83.677,33.806]},"type":"Feature","id":"deadfecfe4","clipped":true,"properties":{"city":"Monroe","name":"Walmart Distribution Center","area":"880,000","country":"United States","year_opened":2000.000,"state":"Georgia","postal_code":"30655","owner":"Walmart","id":117,"street_address":"655 Unisia Drive","description":"Originally constructed as a Perishables DC at 480,000 sq ft . Added 400,000 sq ft of Dry Grocery space in 2006."}},{"geometry":{"type":"Point","coordinates":[-85.324,32.700]},"type":"Feature","id":"9fa1ab463d","clipped":true,"properties":{"city":"Opelika","name":"Walmart Distribution Center","area":"880,000","country":"United States","year_opened":2000.000,"state":"Alabama","postal_code":"36801","owner":"Walmart","id":111,"street_address":"2701 Andrews Road","description":"Originally constructed to 450,000 sq ft."}},{"geometry":{"type":"Point","coordinates":[-79.637,39.214]},"type":"Feature","id":"429a2c8370","clipped":true,"properties":{"city":"Parsons","name":"Walmart Distribution Center","area":"Unknown","country":"United States","year_opened":null,"state":"West Virginia","postal_code":"26287","owner":"Walmart","id":108,"street_address":"","description":null}},{"geometry":{"type":"Point","coordinates":[-82.003,34.552]},"type":"Feature","id":"b3d4147800","clipped":true,"properties":{"city":"Laurens","name":"Walmart Distribution Center","area":"1,630,860","country":"United States","year_opened":1988.000,"state":"South Carolina","postal_code":"29360","owner":"Walmart","id":105,"street_address":"1050 Vern Cora Road","description":"Originally constructed to 583,000 sq ft;. Expanded in 1992. Facility converted into a Fashion DC in 2002."}},{"geometry":{"type":"Point","coordinates":[-86.832,39.637]},"type":"Feature","id":"55bbba4907","clipped":true,"properties":{"city":"Greencastle","name":"Walmart Distribution Center","area":"1,515,000","country":"United States","year_opened":1991.000,"state":"Indiana","postal_code":"46135","owner":"Walmart","id":103,"street_address":"333 South 10th Street","description":"Originally constructed to 937,000 sq ft. Expanded twice since 1991. 15 miles of conveyor."}},{"geometry":{"type":"Point","coordinates":[-85.124,33.636]},"type":"Feature","id":"544ac12e4d","clipped":true,"properties":{"city":"Carrollton","name":"Walmart Distribution Center","area":"1,000,000","country":"United States","year_opened":2002.000,"state":"Georgia","postal_code":"30117","owner":"Walmart","id":90,"street_address":"3101 U.S. 27","description":"Dedicated Walmart.com distribution center."}},{"geometry":{"type":"Point","coordinates":[-84.147,33.447]},"type":"Feature","id":"2a5eef2cb5","clipped":true,"properties":{"city":"McDonough","name":"Walmart Distribution Center","area":"357,120","country":"United States","year_opened":2001.000,"state":"Georgia","postal_code":null,"owner":"Walmart","id":87,"street_address":"","description":"Outsourced to 3PL Exel Logistics. Tire Distribution Center that ships tires to over 700 Walmart and Sam's Club stores in the Southeast."}},{"geometry":{"type":"Point","coordinates":[-82.036,35.003]},"type":"Feature","id":"2d181d0c01","clipped":true,"properties":{"city":"Spartanburg","name":"Walmart Distribution Center","area":"266,400","country":"United States","year_opened":2009.000,"state":"South Carolina","postal_code":"29303","owner":"Walmart","id":83,"street_address":"5795 North Blackstock Road","description":"Outsourced to 3PL Exel Logistics. Walmart Return Distribution Center that replaced a Return center in Macon GA which was closed Sep 2009."}},{"geometry":{"type":"Point","coordinates":[-86.025,39.818]},"type":"Feature","id":"62cf66c766","clipped":true,"properties":{"city":"Indianapolis","name":"Walmart Distribution Center","area":"266,400","country":"United States","year_opened":null,"state":"Indiana","postal_code":"46226","owner":"Walmart","id":80,"street_address":"3333 North Franklin Road","description":"Outsourced to 3PL Exel Logistics. Walmart Return Distribution Center."}},{"geometry":{"type":"Point","coordinates":[-86.867,40.047]},"type":"Feature","id":"5ee2e182fb","clipped":true,"properties":{"city":"Crawfordsville","name":"Walmart Distribution Center","area":"31,400","country":"United States","year_opened":1993.000,"state":"Indiana","postal_code":"47933","owner":"Walmart","id":68,"street_address":"801 Corda Boulevard","description":"Optical Lab / Plant."}},{"geometry":{"type":"Point","coordinates":[-81.457,40.912]},"type":"Feature","id":"94accd238b","clipped":true,"properties":{"city":"Canton","name":"Walmart Distribution Center","area":"75,000","country":"United States","year_opened":null,"state":"Ohio","postal_code":"44720","owner":"Walmart","id":61,"street_address":"2150 International Parkway","description":"Sam's Crossdock facility run by ASW Global, LLC."}},{"geometry":{"type":"Point","coordinates":[-80.932,35.129]},"type":"Feature","id":"cef724a361","clipped":true,"properties":{"city":"Charlotte","name":"Walmart Distribution Center","area":"63,400","country":"United States","year_opened":1991.000,"state":"North Carolina","postal_code":"28273","owner":"Walmart","id":59,"street_address":"1911 Continental Boulevard","description":"Sam's Crossdock facility run by 3PL Distribution Technology Inc."}},{"geometry":{"type":"Point","coordinates":[-85.777,39.811]},"type":"Feature","id":"4d2c0fb180","clipped":true,"properties":{"city":"Greenfield","name":"Walmart Distribution Center","area":"85,200","country":"United States","year_opened":null,"state":"Indiana","postal_code":"46140","owner":"Walmart","id":53,"street_address":"488 West Muskegon Drive","description":"Owned and Operated."}},{"geometry":{"type":"Point","coordinates":[-84.944,33.746]},"type":"Feature","id":"46c267588b","clipped":true,"properties":{"city":"Villa Rica","name":"Walmart Distribution Center","area":"60,000","country":"United States","year_opened":1995.000,"state":"Georgia","postal_code":"30180","owner":"Walmart","id":51,"street_address":"140 Fleet Drive","description":"Sam's Crossdock facility run by 3PL SaddleCreek Logistics."}},{"geometry":{"type":"Point","coordinates":[-78.941,38.357]},"type":"Feature","id":"59a4e366e3","clipped":true,"properties":{"city":null,"name":"Walmart Distribution Center","area":"1,200,000","country":"United States","year_opened":2005.000,"state":"Virginia","postal_code":"22841","owner":"Walmart","id":39,"street_address":"","description":null}},{"geometry":{"type":"Point","coordinates":[-83.015,36.168]},"type":"Feature","id":"f8bacdc3dc","clipped":true,"properties":{"city":"Midway","name":"Walmart Distribution Center","area":"1,200,000","country":"United States","year_opened":1997.000,"state":"Tennessee","postal_code":"37809","owner":"Walmart","id":32,"street_address":"","description":null}},{"geometry":{"type":"Point","coordinates":[-83.102,39.897]},"type":"Feature","id":"4ded3d4354","clipped":true,"properties":{"city":"Grove City","name":"Walmart Distribution Center","area":"1,100,000","country":"United States","year_opened":1992.000,"state":"Ohio","postal_code":"43123","owner":"Walmart","id":28,"street_address":"3880 Southwest Boulevard","description":null}},{"geometry":{"type":"Point","coordinates":[-81.536,35.292]},"type":"Feature","id":"46df63b7d4","clipped":true,"properties":{"city":"Shelbyville","name":"Walmart Distribution Center","area":"1,200,000","country":"United States","year_opened":2002.000,"state":"North Carolina","postal_code":null,"owner":"Walmart","id":25,"street_address":"","description":null}},{"geometry":{"type":"Point","coordinates":[-78.900,34.937]},"type":"Feature","id":"1cb4c5e68a","clipped":true,"properties":{"city":"Hope","name":"Walmart Distribution Center","area":"1,200,000","country":"United States","year_opened":1997.000,"state":"North Carolina","postal_code":"28348","owner":"Walmart","id":24,"street_address":"1057 Sand Hill Road","description":null}},{"geometry":{"type":"Point","coordinates":[-87.478,36.736]},"type":"Feature","id":"7a08a30dd2","clipped":true,"properties":{"city":"Hopkinsville","name":"Walmart Distribution Center","area":"1,200,000","country":"United States","year_opened":2002.000,"state":"Kentucky","postal_code":"42240","owner":"Walmart","id":19,"street_address":"690 Crenshaw Boulevard","description":"15 Miles of conveyor."}},{"geometry":{"type":"Point","coordinates":[-85.849,38.956]},"type":"Feature","id":"271c920973","clipped":true,"properties":{"city":"Seymour","name":"Walmart Distribution Center","area":"1,100,000","country":"United States","year_opened":1990.000,"state":"Indiana","postal_code":"47274","owner":"Walmart","id":17,"street_address":"2100 East Tipton Street","description":null}},{"geometry":{"type":"Point","coordinates":[-84.959,33.034]},"type":"Feature","id":"3719c331de","clipped":true,"properties":{"city":null,"name":"Walmart Distribution Center","area":"1,130,000","country":"United States","year_opened":2000.000,"state":"Georgia","postal_code":"30241","owner":"Walmart","id":14,"street_address":"385 Callaway Church Road","description":"General Merchandise RDC built for $55 Million."}},{"geometry":{"type":"Point","coordinates":[-86.845,34.139]},"type":"Feature","id":"c468e052f9","clipped":true,"properties":{"city":"Cullman","name":"Walmart Distribution Center","area":"1,200,000","country":"United States","year_opened":1983.000,"state":"Alabama","postal_code":"35055","owner":"Walmart","id":1,"street_address":"2200 7th Avenue Southwest","description":"Originally constructed to 900,000 sq ft and expanded to 1.2M sq ft in 1988. 11 miles of conveyors."}},{"geometry":{"type":"Point","coordinates":[-86.748,34.699]},"type":"Feature","id":"ad78b4c7a9","clipped":true,"properties":{"city":"Madison","name":"Target Distribution Center","area":"Unknown","country":"United States","year_opened":null,"state":"Alabama","postal_code":"35758","owner":"Target","id":203,"street_address":"327-399 Church Street","description":null}},{"geometry":{"type":"Point","coordinates":[-81.221,35.670]},"type":"Feature","id":"74ff2f9fb7","clipped":true,"properties":{"city":"Newton","name":"Target Distribution Center","area":"Unknown","country":"United States","year_opened":null,"state":"North Carolina","postal_code":"28658","owner":"Target","id":195,"street_address":"701-799 Highway 16 Business","description":null}},{"geometry":{"type":"Point","coordinates":[-81.192,32.141]},"type":"Feature","id":"02820660d6","clipped":true,"properties":{"city":"Savanna","name":"Target Distribution Center","area":"Unknown","country":"United States","year_opened":null,"state":"Georgia","postal_code":"31408","owner":"Target","id":194,"street_address":"Robert B. Miller Road","description":null}},{"geometry":{"type":"Point","coordinates":[-83.269,39.945]},"type":"Feature","id":"0c06880a27","clipped":true,"properties":{"city":"Estherville","name":"Target Distribution Center","area":"Unknown","country":"United States","year_opened":null,"state":"Ohio","postal_code":"43162","owner":"Target","id":189,"street_address":"1-19 West Main Street","description":null}},{"geometry":{"type":"Point","coordinates":[-79.034,38.030]},"type":"Feature","id":"bf0476999b","clipped":true,"properties":{"city":"Stuart","name":"Target Distribution Center","area":"Unknown","country":"United States","year_opened":null,"state":"Virginia","postal_code":"24477","owner":"Target","id":182,"street_address":"122 Draft Avenue","description":null}},{"geometry":{"type":"Point","coordinates":[-86.341,39.668]},"type":"Feature","id":"2f6c3409b6","clipped":true,"properties":{"city":"Indianapolis","name":"Target Distribution Center","area":"Unknown","country":"United States","year_opened":null,"state":"Indiana","postal_code":"46231","owner":"Target","id":181,"street_address":"6201-6611 White Lick Creek Road","description":null}},{"geometry":{"type":"Point","coordinates":[-84.533,33.616]},"type":"Feature","id":"ad619a16e7","clipped":true,"properties":{"city":"Atlanta","name":"Costco Distribution Center","area":"Unknown","country":"United States","year_opened":null,"state":"Georgia","postal_code":"30349","owner":"Costco","id":238,"street_address":"4250 South Fulton Parkway","description":null}},{"geometry":{"type":"Point","coordinates":[-85.203,40.726]},"type":"Feature","id":"2798b24f7d","clipped":true,"properties":{"city":"Bluffton","name":"Peyton's Northern Distribution Center","area":"Unknown","country":"United States","year_opened":null,"state":"Indiana","postal_code":"46714","owner":"Krogers","id":229,"street_address":"1111 South Adams Street","description":null}},{"geometry":{"type":"Point","coordinates":[-84.900,35.136]},"type":"Feature","id":"7cc8317bf9","clipped":true,"properties":{"city":"Cleveland","name":"Peyton's Southeastern Distribution Center","area":"Unknown","country":"United States","year_opened":null,"state":"Tennessee","postal_code":"37311","owner":"Krogers","id":228,"street_address":"153 Refreshment Lane Southwest","description":null}},{"geometry":{"type":"Point","coordinates":[-86.531,36.606]},"type":"Feature","id":"8ef4612fce","clipped":true,"properties":{"city":"Portland","name":"Peyton's Midsouth Distribution Center","area":"Unknown","country":"United States","year_opened":null,"state":"Tennessee","postal_code":"37148","owner":"Krogers","id":227,"street_address":"120 Kirby Drive","description":null}},{"geometry":{"type":"Point","coordinates":[-82.279,34.742]},"type":"Feature","id":"aa465af5d3","clipped":true,"properties":{"city":"Simpsonville","name":"Kroger Southeastern Floral Distribution Center","area":"Unknown","country":"United States","year_opened":null,"state":"South Carolina","postal_code":"29680","owner":"Krogers","id":216,"street_address":"136 Blakely Road","description":null}},{"geometry":{"type":"Point","coordinates":[-83.762,40.266]},"type":"Feature","id":"b5c5b4fe0e","clipped":true,"properties":{"city":"Estherville","name":"Kroger Northern Floral Distribution Center","area":"Unknown","country":"United States","year_opened":null,"state":"Ohio","postal_code":"43357","owner":"Krogers","id":215,"street_address":"6893 County Road 14","description":null}},{"geometry":{"type":"Point","coordinates":[-89.931,35.025]},"type":"Feature","id":"58966e3095","clipped":true,"properties":{"city":"Memphis","name":"Kroger Distribution Center","area":"Unknown","country":"United States","year_opened":null,"state":"Tennessee","postal_code":"38118","owner":"Krogers","id":214,"street_address":"4524 Delp Street","description":null}},{"geometry":{"type":"Point","coordinates":[-89.869,35.011]},"type":"Feature","id":"e925922a89","clipped":true,"properties":{"city":"Memphis","name":"Kroger Distribution Center","area":"Unknown","country":"United States","year_opened":null,"state":"Tennessee","postal_code":"38141","owner":"Krogers","id":213,"street_address":"5079 Bledsoe Road","description":null}},{"geometry":{"type":"Point","coordinates":[-83.068,40.299]},"type":"Feature","id":"b88a403a33","clipped":true,"properties":{"city":"Delaware","name":"Great Lakes Distribution Center","area":"Unknown","country":"United States","year_opened":null,"state":"Ohio","postal_code":null,"owner":"Krogers","id":211,"street_address":"","description":null}},{"geometry":{"type":"Point","coordinates":[-82.936,39.957]},"type":"Feature","id":"c3cdf4398b","clipped":true,"properties":{"city":"Bexley","name":"Walgreen's Distribution Center","area":"Unknown","country":"United States","year_opened":null,"state":"Ohio","postal_code":"43209","owner":"Walgreens","id":256,"street_address":"2370 East Main Street","description":"Walgreens Distribution Center; "}},{"geometry":{"type":"Point","coordinates":[-82.579,34.633]},"type":"Feature","id":"38c1fc1447","clipped":true,"properties":{"city":"Williams","name":"Walgreen's Distribution Center","area":"Unknown","country":"United States","year_opened":null,"state":"South Carolina","postal_code":"29697","owner":"Walgreens","id":248,"street_address":"101 Alliance Parkway","description":"Walgreens Distribution Center; Anderson Distribution Center"}},{"geometry":{"type":"Point","coordinates":[-81.094,40.735]},"type":"Feature","id":"7878741482","clipped":true,"properties":{"city":"Minerva","name":"Walgreen's Distribution Center","area":"Unknown","country":"United States","year_opened":null,"state":"Ohio","postal_code":"44657","owner":"Walgreens","id":268,"street_address":"730 U.S. 30","description":"Walgreens Distribution Center; Walgreens Return Center"}},{"geometry":{"type":"Point","coordinates":[-80.282,33.220]},"type":"Feature","id":"1c1fe2e3ec","clipped":true,"properties":{"city":"Ida Grove","name":"Walgreen's Distribution Center","area":"Unknown","country":"United States","year_opened":null,"state":"South Carolina","postal_code":"29472","owner":"Walgreens","id":264,"street_address":"4400 State Road","description":"Walgreens Distribution Center; "}},{"geometry":{"type":"Point","coordinates":[-83.602,34.196]},"type":"Feature","id":"28f9127799","clipped":true,"properties":{"city":"Ranger","name":"Walgreen's Distribution Center","area":"Unknown","country":"United States","year_opened":null,"state":"Georgia","postal_code":"30567","owner":"Walgreens","id":262,"street_address":"350 Raco Parkway","description":"Regional Full Case Warehouses; "}},{"geometry":{"type":"Point","coordinates":[-87.014,35.672]},"type":"Feature","id":"b39c626557","clipped":true,"properties":{"city":"Columbia","name":"Home Depot Distribution Center","area":"Unknown","country":"United States","year_opened":null,"state":"Tennessee","postal_code":"38401","owner":"Home Depot","id":392,"street_address":"1701 North Claton Drive","description":""}},{"geometry":{"type":"Point","coordinates":[-81.073,33.909]},"type":"Feature","id":"78d0e082ae","clipped":true,"properties":{"city":"Columbia","name":"Home Depot Rapid Deployment Center","area":"Unknown","country":"United States","year_opened":null,"state":"South Carolina","postal_code":"29172","owner":"Home Depot","id":391,"street_address":"420 Foster Brothers Drive","description":""}},{"geometry":{"type":"Point","coordinates":[-84.322,39.435]},"type":"Feature","id":"5a238e562e","clipped":true,"properties":{"city":"Monroe","name":"Home Depot Rapid Deployment Center","area":"Unknown","country":"United States","year_opened":null,"state":"Ohio","postal_code":"45050","owner":"Home Depot","id":386,"street_address":"500 Gateway Boulevard","description":""}},{"geometry":{"type":"Point","coordinates":[-80.885,35.282]},"type":"Feature","id":"1550fa1551","clipped":true,"properties":{"city":"Charlotte","name":"Home Depot Distribution Center","area":"Unknown","country":"United States","year_opened":null,"state":"North Carolina","postal_code":"28216","owner":"Home Depot","id":383,"street_address":"501 Black Satchel Drive","description":""}},{"geometry":{"type":"Point","coordinates":[-86.356,39.688]},"type":"Feature","id":"70cabd9169","clipped":true,"properties":{"city":"Plainfield","name":"Home Depot Distribution Center","area":"Unknown","country":"United States","year_opened":null,"state":"Indiana","postal_code":"46168","owner":"Home Depot","id":368,"street_address":"1390 Perry Road","description":""}},{"geometry":{"type":"Point","coordinates":[-81.205,32.157]},"type":"Feature","id":"e98c078473","clipped":true,"properties":{"city":"Savannah","name":"Home Depot Distribution Center","area":"Unknown","country":"United States","year_opened":null,"state":"Georgia","postal_code":"31407","owner":"Home Depot","id":364,"street_address":"125 Crossroads Parkway","description":""}},{"geometry":{"type":"Point","coordinates":[-83.932,33.982]},"type":"Feature","id":"e58a7becd0","clipped":true,"properties":{"city":"Dacula","name":"Home Depot Distribution Center","area":"Unknown","country":"United States","year_opened":null,"state":"Georgia","postal_code":"30019","owner":"Home Depot","id":363,"street_address":"155 Alcovy Ind Boulevard","description":""}},{"geometry":{"type":"Point","coordinates":[-84.160,33.379]},"type":"Feature","id":"51f7927bb2","clipped":true,"properties":{"city":"McDonough","name":"Home Depot Distribution Center","area":"Unknown","country":"United States","year_opened":null,"state":"Georgia","postal_code":"30253","owner":"Home Depot","id":361,"street_address":"190 Greenwood Industrial Parkway","description":""}},{"geometry":{"type":"Point","coordinates":[-84.200,33.408]},"type":"Feature","id":"a58546bfe3","clipped":true,"properties":{"city":"McDonough","name":"Home Depot Distribution Center","area":"Unknown","country":"United States","year_opened":null,"state":"Georgia","postal_code":"30253","owner":"Home Depot","id":360,"street_address":"180 Westridge Parkway","description":""}},{"geometry":{"type":"Point","coordinates":[-87.029,33.320]},"type":"Feature","id":"bd5f3d3a2f","clipped":true,"properties":{"city":"McCall","name":"Home Depot Rapid Deployment Center","area":"Unknown","country":"United States","year_opened":null,"state":"Alabama","postal_code":"35111","owner":"Home Depot","id":338,"street_address":"6400 Jefferson Metro Parkway","description":""}},{"geometry":{"type":"Point","coordinates":[-86.405,36.127]},"type":"Feature","id":"623465a697","clipped":true,"properties":{"city":"Mount Juliet","name":"Amazon Distribution Center #BNA2","area":"Unknown","country":"United States","year_opened":null,"state":"Tennessee","postal_code":"37122","owner":"Amazon","id":323,"street_address":"Duke Drive","description":null}},{"geometry":{"type":"Point","coordinates":[-84.813,35.283]},"type":"Feature","id":"054f26fb26","clipped":true,"properties":{"city":"Charleston","name":"Amazon Distribution Center #CHA2","area":"Unknown","country":"United States","year_opened":null,"state":"Tennessee","postal_code":"37310","owner":"Amazon","id":322,"street_address":"225 Infinity Drive","description":null}},{"geometry":{"type":"Point","coordinates":[-86.406,36.131]},"type":"Feature","id":"d1a08288df","clipped":true,"properties":{"city":"Lebanon","name":"Amazon Distribution Center #BNA1","area":"Unknown","country":"United States","year_opened":null,"state":"Tennessee","postal_code":"37090","owner":"Amazon","id":321,"street_address":"14840 Central Pike","description":null}},{"geometry":{"type":"Point","coordinates":[-86.365,35.782]},"type":"Feature","id":"d80124e19a","clipped":true,"properties":{"city":"Murfreesboro","name":"Amazon Distribution Center #BNA3","area":"Unknown","country":"United States","year_opened":null,"state":"Tennessee","postal_code":"37127","owner":"Amazon","id":320,"street_address":"2020 Joe B Jackson Parkway","description":null}},{"geometry":{"type":"Point","coordinates":[-85.141,35.068]},"type":"Feature","id":"ba530e4211","clipped":true,"properties":{"city":"Ogallala","name":"Amazon Distribution Center #CHA1","area":"Unknown","country":"United States","year_opened":null,"state":"Tennessee","postal_code":"37421","owner":"Amazon","id":319,"street_address":"7200 Discovery Drive","description":null}},{"geometry":{"type":"Point","coordinates":[-81.048,33.912]},"type":"Feature","id":"cbe4825ec3","clipped":true,"properties":{"city":"Columbia","name":"Amazon Distribution Center #CAE1","area":"Unknown","country":"United States","year_opened":null,"state":"South Carolina","postal_code":"29172","owner":"Amazon","id":318,"street_address":"4400 12th Street Extension","description":null}},{"geometry":{"type":"Point","coordinates":[-81.048,33.912]},"type":"Feature","id":"cbe4825ec3","clipped":true,"properties":{"city":"Columbia","name":"Amazon Distribution Center ","area":"Unknown","country":"United States","year_opened":null,"state":"South Carolina","postal_code":"29172","owner":"Amazon","id":317,"street_address":"4400 12th Street Extension","description":null}},{"geometry":{"type":"Point","coordinates":[-82.035,35.008]},"type":"Feature","id":"61ac516d39","clipped":true,"properties":{"city":"Spartanburg","name":"Amazon Distribution Center #GSP1","area":"Unknown","country":"United States","year_opened":null,"state":"South Carolina","postal_code":"29303","owner":"Amazon","id":316,"street_address":"402 John Dodd Road","description":null}},{"geometry":{"type":"Point","coordinates":[-85.716,37.988]},"type":"Feature","id":"830e693bd4","clipped":true,"properties":{"city":"Dansville","name":"Amazon Distribution Center #SDF9","area":"Unknown","country":"United States","year_opened":null,"state":"Kentucky","postal_code":"40165","owner":"Amazon","id":301,"street_address":"","description":null}},{"geometry":{"type":"Point","coordinates":[-85.676,37.964]},"type":"Feature","id":"a54f18b562","clipped":true,"properties":{"city":"Ephrata","name":"Amazon Distribution Center #SDF7","area":"Unknown","country":"United States","year_opened":null,"state":"Kentucky","postal_code":"40165","owner":"Amazon","id":300,"street_address":"Omicron Court","description":null}},{"geometry":{"type":"Point","coordinates":[-85.682,37.972]},"type":"Feature","id":"8266219315","clipped":true,"properties":{"city":"Dansville","name":"Amazon Distribution Center #SDF6","area":"Unknown","country":"United States","year_opened":null,"state":"Kentucky","postal_code":"40165","owner":"Amazon","id":299,"street_address":"Omega Parkway","description":null}},{"geometry":{"type":"Point","coordinates":[-85.705,37.964]},"type":"Feature","id":"7b5443f834","clipped":true,"properties":{"city":"Ephrata","name":"Amazon Distribution Center #SDF4","area":"Unknown","country":"United States","year_opened":null,"state":"Kentucky","postal_code":"40165","owner":"Amazon","id":298,"street_address":"","description":null}},{"geometry":{"type":"Point","coordinates":[-84.549,38.075]},"type":"Feature","id":"c64bce1aa0","clipped":true,"properties":{"city":"Lexington","name":"Amazon Distribution Center #LEX2","area":"Unknown","country":"United States","year_opened":null,"state":"Kentucky","postal_code":"40511","owner":"Amazon","id":297,"street_address":"172 Trade Street","description":null}},{"geometry":{"type":"Point","coordinates":[-84.533,38.077]},"type":"Feature","id":"df70529fb9","clipped":true,"properties":{"city":"Lexington","name":"Amazon Distribution Center #LEX1","area":"Unknown","country":"United States","year_opened":null,"state":"Kentucky","postal_code":"40511","owner":"Amazon","id":296,"street_address":"1850 Mercer Road","description":null}},{"geometry":{"type":"Point","coordinates":[-84.718,39.075]},"type":"Feature","id":"bb5c88624f","clipped":true,"properties":{"city":"Hebron","name":"Amazon Distribution Center #CVG5","area":"Unknown","country":"United States","year_opened":null,"state":"Kentucky","postal_code":"41048","owner":"Amazon","id":295,"street_address":"2285 Litton Lane","description":null}},{"geometry":{"type":"Point","coordinates":[-84.718,39.063]},"type":"Feature","id":"4a8576a2bb","clipped":true,"properties":{"city":"Hebron","name":"Amazon Distribution Center #CVG3","area":"Unknown","country":"United States","year_opened":null,"state":"Kentucky","postal_code":"41048","owner":"Amazon","id":294,"street_address":"3680 Langley Drive","description":null}},{"geometry":{"type":"Point","coordinates":[-84.726,39.087]},"type":"Feature","id":"ca3ffc008a","clipped":true,"properties":{"city":"Hebron","name":"Amazon Distribution Center #CVG2","area":"Unknown","country":"United States","year_opened":null,"state":"Kentucky","postal_code":"41048","owner":"Amazon","id":293,"street_address":"1600 Worldwide Boulevard","description":null}},{"geometry":{"type":"Point","coordinates":[-86.289,39.756]},"type":"Feature","id":"ddff7a6373","clipped":true,"properties":{"city":"Indiana","name":"Amazon Distribution Center #IND4","area":"Unknown","country":"United States","year_opened":null,"state":"Indiana","postal_code":"46214","owner":"Amazon","id":285,"street_address":"710 South Girls School Road","description":null}},{"geometry":{"type":"Point","coordinates":[-84.714,39.083]},"type":"Feature","id":"3cb4f028d6","clipped":true,"properties":{"city":"Hebron","name":"Amazon Distribution Center #CVG1","area":"Unknown","country":"United States","year_opened":null,"state":"Kentucky","postal_code":"41048","owner":"Amazon","id":292,"street_address":"1155 Worldwide Boulevard","description":null}},{"geometry":{"type":"Point","coordinates":[-85.692,38.196]},"type":"Feature","id":"a08e2f2ba8","clipped":true,"properties":{"city":"Louisville","name":"Amazon Distribution Center #SDF2","area":"Unknown","country":"United States","year_opened":null,"state":"Kentucky","postal_code":"40218","owner":"Amazon","id":291,"street_address":"4360 Robards Lane","description":null}},{"geometry":{"type":"Point","coordinates":[-85.352,37.328]},"type":"Feature","id":"98082ca2ba","clipped":true,"properties":{"city":"Campbell","name":"Amazon Distribution Center #SDF1","area":"Unknown","country":"United States","year_opened":null,"state":"Kentucky","postal_code":"42718","owner":"Amazon","id":290,"street_address":"1105 South Columbia Avenue","description":null}},{"geometry":{"type":"Point","coordinates":[-85.690,38.379]},"type":"Feature","id":"24e3639b5f","clipped":true,"properties":{"city":"Jefferson","name":"Amazon Distribution Center #SDF8","area":"Unknown","country":"United States","year_opened":null,"state":"Indiana","postal_code":"47130","owner":"Amazon","id":288,"street_address":"900 Patrol Road","description":null}},{"geometry":{"type":"Point","coordinates":[-86.356,39.696]},"type":"Feature","id":"ee7e286686","clipped":true,"properties":{"city":"Plainfield","name":"Amazon Distribution Center #IND5","area":"Unknown","country":"United States","year_opened":null,"state":"Indiana","postal_code":"46168","owner":"Amazon","id":287,"street_address":"800 Perry Road","description":null}},{"geometry":{"type":"Point","coordinates":[-86.345,39.700]},"type":"Feature","id":"dfc3f10c8a","clipped":true,"properties":{"city":"Plainfield","name":"Amazon Distribution Center #IND2","area":"Unknown","country":"United States","year_opened":null,"state":"Indiana","postal_code":"46168","owner":"Amazon","id":286,"street_address":"715 Airtech Parkway","description":null}},{"geometry":{"type":"Point","coordinates":[-86.382,39.966]},"type":"Feature","id":"ff7b191e1d","clipped":true,"properties":{"city":"Estherville","name":"Amazon Distribution Center #XUSE","area":"Unknown","country":"United States","year_opened":null,"state":"Indiana","postal_code":"46075","owner":"Amazon","id":284,"street_address":"5100 South Indianapolis Road","description":null}},{"geometry":{"type":"Point","coordinates":[-86.383,39.980]},"type":"Feature","id":"f3c7f7d3da","clipped":true,"properties":{"city":"Stow","name":"Amazon Distribution Center #IND1","area":"Unknown","country":"United States","year_opened":null,"state":"Indiana","postal_code":"46075","owner":"Amazon","id":283,"street_address":"4255 Anson Boulevard","description":null}},{"geometry":{"type":"Point","coordinates":[-85.730,38.290]},"type":"Feature","id":"f6ae683693","clipped":true,"properties":{"city":"Jefferson","name":"Amazon Distribution Center #IND6","area":"Unknown","country":"United States","year_opened":null,"state":"Indiana","postal_code":"47130","owner":"Amazon","id":282,"street_address":"1453 East 10th Street","description":null}},{"geometry":{"type":"Point","coordinates":[-81.173,32.177]},"type":"Feature","id":"c003846252","clipped":true,"properties":{"city":"Port Wentworth","name":"IKEA Savannah DC","area":"Unknown","country":"United States","year_opened":null,"state":"Georgia","postal_code":"31407","owner":"Ikea","id":411,"street_address":"202 Little Hearst Parkway","description":null}},{"geometry":{"type":"Point","coordinates":[-81.196,32.160]},"type":"Feature","id":"c0b55f77a5","clipped":true,"properties":{"city":"Savanna","name":"Walmart Distribution Center","area":"800,000","country":"United States","year_opened":2001.000,"state":"Georgia","postal_code":"31407","owner":"Walmart","id":97,"street_address":"163 Portside Court","description":"Import Center that was closed in 2008 and consolidated into the Statesboro, GA facility."}},{"geometry":{"type":"Point","coordinates":[-79.906,32.911]},"type":"Feature","id":"bf018707fd","clipped":true,"properties":{"city":"Charleston","name":"Walmart Distribution Center","area":"560,000","country":"United States","year_opened":2002.000,"state":"South Carolina","postal_code":"29492","owner":"Walmart","id":98,"street_address":"1080 Charleston Regional Parkway","description":"Import Center constructed for Walmart in a FTZ Zone in 2001-2002 and closed in 2006."}},{"geometry":{"type":"Point","coordinates":[-82.937,39.842]},"type":"Feature","id":"5a33230e37","clipped":true,"properties":{"city":"Bourne","name":"Walmart Distribution Center","area":"414,000","country":"United States","year_opened":2001.000,"state":"Ohio","postal_code":"43137","owner":"Walmart","id":99,"street_address":"2525 Rohr Road","description":"Optical Lab closed in Mar 2009."}},{"geometry":{"type":"Point","coordinates":[-80.689,34.227]},"type":"Feature","id":"426ce27a82","clipped":true,"properties":{"city":"Lugoff","name":"Target Distribution Center","area":"6,789,086","country":"United States","year_opened":null,"state":"South Carolina","postal_code":"29078","owner":"Target","id":209,"street_address":"922-936 Highway 34","description":"<p>Test</p>"}}]}