{"type":"FeatureCollection","features":[{"geometry":{"type":"Point","coordinates":[-86.85,34.14]},"type":"Feature","id":"c468e052f9","clipped":true,"properties":{"city":"Cullman","name":"Walmart Distribution Center","area":"1,200,000","country":"United States","year_opened":1983.00,"state":"Alabama","postal_code":"35055","owner":"Walmart","id":1,"street_address":"2200 7th Avenue Southwest","description":"Originally constructed to 900,000 sq ft and expanded to 1.2M sq ft in 1988. 11 miles of conveyors."}},{"geometry":{"type":"Point","coordinates":[-75.62,39.29]},"type":"Feature","id":"a2f6cd179e","clipped":true,"properties":{"city":"Smyrna","name":"Walmart Distribution Center","area":"1,200,000","country":"United States","year_opened":2004.00,"state":"Delaware","postal_code":"19977","owner":"Walmart","id":9,"street_address":"4860 Wheatleys Pond Road","description":"General Merchandise RDC."}},{"geometry":{"type":"Point","coordinates":[-82.47,29.90]},"type":"Feature","id":"8051860be9","clipped":true,"properties":{"city":"Alachua","name":"Walmart Distribution Center","area":"1,200,000","country":"United States","year_opened":2006.00,"state":"Florida","postal_code":"32615","owner":"Walmart","id":10,"street_address":"18815 Northwest 115th Terrace","description":"General Merchandise RDC built for $55M."}},{"geometry":{"type":"Point","coordinates":[-82.22,28.50]},"type":"Feature","id":"e7886a4781","clipped":true,"properties":{"city":"Brooksville","name":"Walmart Distribution Center","area":"1,600,000","country":"United States","year_opened":1992.00,"state":"Florida","postal_code":"34602","owner":"Walmart","id":11,"street_address":"5100 Kettering Road","description":"Originally built to 1.1 Million sq ft and later expanded in 1996 and 1999."}},{"geometry":{"type":"Point","coordinates":[-80.39,27.39]},"type":"Feature","id":"03a502b110","clipped":true,"properties":{"city":"Fort Pierce","name":"Walmart Distribution Center","area":"1,200,000","country":"United States","year_opened":2004.00,"state":"Florida","postal_code":"34981","owner":"Walmart","id":12,"street_address":"4001 South Jenkins Road","description":null}},{"geometry":{"type":"Point","coordinates":[-82.87,31.50]},"type":"Feature","id":"d0279121d7","clipped":true,"properties":{"city":"Douglas","name":"Walmart Distribution Center","area":"994,000","country":"United States","year_opened":1986.00,"state":"Georgia","postal_code":"31533","owner":"Walmart","id":13,"street_address":"690 Highway 206","description":"Walmart's 8th distribution center was originally built to 700,000 sq ft."}},{"geometry":{"type":"Point","coordinates":[-84.96,33.03]},"type":"Feature","id":"3719c331de","clipped":true,"properties":{"city":null,"name":"Walmart Distribution Center","area":"1,130,000","country":"United States","year_opened":2000.00,"state":"Georgia","postal_code":"30241","owner":"Walmart","id":14,"street_address":"385 Callaway Church Road","description":"General Merchandise RDC built for $55 Million."}},{"geometry":{"type":"Point","coordinates":[-89.22,41.35]},"type":"Feature","id":"72a0093e92","clipped":true,"properties":{"city":"Spring Valley","name":"Walmart Distribution Center","area":"1,200,000","country":"United States","year_opened":2001.00,"state":"Illinois","postal_code":"61362","owner":"Walmart","id":16,"street_address":"3100 Highway 89","description":null}},{"geometry":{"type":"Point","coordinates":[-85.85,38.96]},"type":"Feature","id":"271c920973","clipped":true,"properties":{"city":"Seymour","name":"Walmart Distribution Center","area":"1,100,000","country":"United States","year_opened":1990.00,"state":"Indiana","postal_code":"47274","owner":"Walmart","id":17,"street_address":"2100 East Tipton Street","description":null}},{"geometry":{"type":"Point","coordinates":[-87.48,36.74]},"type":"Feature","id":"7a08a30dd2","clipped":true,"properties":{"city":"Hopkinsville","name":"Walmart Distribution Center","area":"1,200,000","country":"United States","year_opened":2002.00,"state":"Kentucky","postal_code":"42240","owner":"Walmart","id":19,"street_address":"690 Crenshaw Boulevard","description":"15 Miles of conveyor."}},{"geometry":{"type":"Point","coordinates":[-84.98,41.99]},"type":"Feature","id":"fc4b3ebd97","clipped":true,"properties":{"city":"Antlers","name":"Walmart Distribution Center","area":"1,100,000","country":"United States","year_opened":2001.00,"state":"Michigan","postal_code":"49036","owner":"Walmart","id":21,"street_address":"510 Jonesville Road","description":null}},{"geometry":{"type":"Point","coordinates":[-78.90,34.94]},"type":"Feature","id":"1cb4c5e68a","clipped":true,"properties":{"city":"Hope","name":"Walmart Distribution Center","area":"1,200,000","country":"United States","year_opened":1997.00,"state":"North Carolina","postal_code":"28348","owner":"Walmart","id":24,"street_address":"1057 Sand Hill Road","description":null}},{"geometry":{"type":"Point","coordinates":[-81.54,35.29]},"type":"Feature","id":"46df63b7d4","clipped":true,"properties":{"city":"Shelbyville","name":"Walmart Distribution Center","area":"1,200,000","country":"United States","year_opened":2002.00,"state":"North Carolina","postal_code":null,"owner":"Walmart","id":25,"street_address":"","description":null}},{"geometry":{"type":"Point","coordinates":[-71.16,43.03]},"type":"Feature","id":"406f2a5385","clipped":true,"properties":{"city":"Raymond","name":"Walmart Distribution Center","area":"1,100,000","country":"United States","year_opened":1996.00,"state":"New Hampshire","postal_code":"03077","owner":"Walmart","id":26,"street_address":"42 Freetown Road","description":null}},{"geometry":{"type":"Point","coordinates":[-75.31,43.17]},"type":"Feature","id":"5fa6efd142","clipped":true,"properties":{"city":null,"name":"Walmart Distribution Center","area":"1,200,000","country":"United States","year_opened":1994.00,"state":"New York","postal_code":"13403","owner":"Walmart","id":27,"street_address":"8827 Old River Road","description":null}},{"geometry":{"type":"Point","coordinates":[-83.10,39.90]},"type":"Feature","id":"4ded3d4354","clipped":true,"properties":{"city":"Grove City","name":"Walmart Distribution Center","area":"1,100,000","country":"United States","year_opened":1992.00,"state":"Ohio","postal_code":"43123","owner":"Walmart","id":28,"street_address":"3880 Southwest Boulevard","description":null}},{"geometry":{"type":"Point","coordinates":[-75.41,41.16]},"type":"Feature","id":"cf3a619568","clipped":true,"properties":{"city":"Athens","name":"Walmart Distribution Center","area":"1,119,245","country":"United States","year_opened":2002.00,"state":"Pennsylvania","postal_code":"18346","owner":"Walmart","id":30,"street_address":"300 Veterans Drive","description":null}},{"geometry":{"type":"Point","coordinates":[-78.32,41.03]},"type":"Feature","id":"eb336edcce","clipped":true,"properties":{"city":"Woodland","name":"Walmart Distribution Center","area":"1,190,000","country":"United States","year_opened":1993.00,"state":"Pennsylvania","postal_code":"16881","owner":"Walmart","id":31,"street_address":"","description":null}},{"geometry":{"type":"Point","coordinates":[-83.01,36.17]},"type":"Feature","id":"f8bacdc3dc","clipped":true,"properties":{"city":"Midway","name":"Walmart Distribution Center","area":"1,200,000","country":"United States","year_opened":1997.00,"state":"Tennessee","postal_code":"37809","owner":"Walmart","id":32,"street_address":"","description":null}},{"geometry":{"type":"Point","coordinates":[-78.94,38.36]},"type":"Feature","id":"59a4e366e3","clipped":true,"properties":{"city":null,"name":"Walmart Distribution Center","area":"1,200,000","country":"United States","year_opened":2005.00,"state":"Virginia","postal_code":"22841","owner":"Walmart","id":39,"street_address":"","description":null}},{"geometry":{"type":"Point","coordinates":[-77.54,37.19]},"type":"Feature","id":"4917722194","clipped":true,"properties":{"city":"Petersburg","name":"Walmart Distribution Center","area":"1,200,000","country":"United States","year_opened":1991.00,"state":"Virginia","postal_code":"23803","owner":"Walmart","id":40,"street_address":"21504 Cox Road","description":null}},{"geometry":{"type":"Point","coordinates":[-88.79,43.51]},"type":"Feature","id":"679ca0124f","clipped":true,"properties":{"city":"Beaver","name":"Walmart Distribution Center","area":"1,200,000","country":"United States","year_opened":2007.00,"state":"Wisconsin","postal_code":"53916","owner":"Walmart","id":41,"street_address":"115 Distribution Way","description":null}},{"geometry":{"type":"Point","coordinates":[-81.49,30.46]},"type":"Feature","id":"e09d71f318","clipped":true,"properties":{"city":"Jacksonville","name":"Walmart Distribution Center","area":"129,665","country":"United States","year_opened":2013.00,"state":"Florida","postal_code":"32226","owner":"Walmart","id":49,"street_address":"","description":null}},{"geometry":{"type":"Point","coordinates":[-81.90,28.08]},"type":"Feature","id":"3e48eac7fc","clipped":true,"properties":{"city":"Lakeland","name":"Walmart Distribution Center","area":"66,400","country":"United States","year_opened":1991.00,"state":"Florida","postal_code":"33801","owner":"Walmart","id":50,"street_address":"3010 Saddle Creek Road","description":"Sam's Crossdock facility run by 3PL SaddleCreek Logistics."}},{"geometry":{"type":"Point","coordinates":[-84.94,33.75]},"type":"Feature","id":"46c267588b","clipped":true,"properties":{"city":"Villa Rica","name":"Walmart Distribution Center","area":"60,000","country":"United States","year_opened":1995.00,"state":"Georgia","postal_code":"30180","owner":"Walmart","id":51,"street_address":"140 Fleet Drive","description":"Sam's Crossdock facility run by 3PL SaddleCreek Logistics."}},{"geometry":{"type":"Point","coordinates":[-87.75,41.44]},"type":"Feature","id":"cb4e010b02","clipped":true,"properties":{"city":"University Park","name":"Walmart Distribution Center","area":"49,200","country":"United States","year_opened":2005.00,"state":"Illinois","postal_code":"60484","owner":"Walmart","id":52,"street_address":"1325 South Central Avenue","description":"Sam's Crossdock facility run by 3PL Vitran Logistics."}},{"geometry":{"type":"Point","coordinates":[-85.78,39.81]},"type":"Feature","id":"4d2c0fb180","clipped":true,"properties":{"city":"Greenfield","name":"Walmart Distribution Center","area":"85,200","country":"United States","year_opened":null,"state":"Indiana","postal_code":"46140","owner":"Walmart","id":53,"street_address":"488 West Muskegon Drive","description":"Owned and Operated."}},{"geometry":{"type":"Point","coordinates":[-77.72,39.72]},"type":"Feature","id":"01b11a34fc","clipped":true,"properties":{"city":"Stow","name":"Walmart Distribution Center","area":"40,000","country":"United States","year_opened":1994.00,"state":"Maryland","postal_code":"21742","owner":"Walmart","id":54,"street_address":"14557 Industry Drive","description":"Sam's Crossdock facility run by Kane is Able."}},{"geometry":{"type":"Point","coordinates":[-83.20,42.21]},"type":"Feature","id":"bc97e27ebe","clipped":true,"properties":{"city":"Antlers","name":"Walmart Distribution Center","area":"60,000","country":"United States","year_opened":1992.00,"state":"Michigan","postal_code":"48195","owner":"Walmart","id":55,"street_address":"Dix Toledo Road","description":"Sam's Crossdock facility run by ASW Global, LLC."}},{"geometry":{"type":"Point","coordinates":[-89.27,31.27]},"type":"Feature","id":"1479de6014","clipped":true,"properties":{"city":"Hattiesburg","name":"Walmart Distribution Center","area":"60,000","country":"United States","year_opened":2008.00,"state":"Mississippi","postal_code":"39401","owner":"Walmart","id":58,"street_address":"185 J M Tatum Industrial Drive","description":"Sam's Crossdock facility run by 3PL SaddleCreek Logistics."}},{"geometry":{"type":"Point","coordinates":[-80.93,35.13]},"type":"Feature","id":"cef724a361","clipped":true,"properties":{"city":"Charlotte","name":"Walmart Distribution Center","area":"63,400","country":"United States","year_opened":1991.00,"state":"North Carolina","postal_code":"28273","owner":"Walmart","id":59,"street_address":"1911 Continental Boulevard","description":"Sam's Crossdock facility run by 3PL Distribution Technology Inc."}},{"geometry":{"type":"Point","coordinates":[-71.45,43.08]},"type":"Feature","id":"6ea41f9ba9","clipped":true,"properties":{"city":"Hooksett","name":"Walmart Distribution Center","area":"26,200","country":"United States","year_opened":2005.00,"state":"New Hampshire","postal_code":"03106","owner":"Walmart","id":60,"street_address":"","description":"Sam's Crossdock facility formerly run by PSI - Puget Sound International which went out of business in Sep, 2012."}},{"geometry":{"type":"Point","coordinates":[-81.46,40.91]},"type":"Feature","id":"94accd238b","clipped":true,"properties":{"city":"Canton","name":"Walmart Distribution Center","area":"75,000","country":"United States","year_opened":null,"state":"Ohio","postal_code":"44720","owner":"Walmart","id":61,"street_address":"2150 International Parkway","description":"Sam's Crossdock facility run by ASW Global, LLC."}},{"geometry":{"type":"Point","coordinates":[-75.70,41.40]},"type":"Feature","id":"dc86469b73","clipped":true,"properties":{"city":"Taylor","name":"Walmart Distribution Center","area":"70,000","country":"United States","year_opened":1990.00,"state":"Pennsylvania","postal_code":"18517","owner":"Walmart","id":62,"street_address":"26 Stauffer Industrial Park","description":"Sam's Crossdock facility run by Kane is Able."}},{"geometry":{"type":"Point","coordinates":[-86.87,40.05]},"type":"Feature","id":"5ee2e182fb","clipped":true,"properties":{"city":"Crawfordsville","name":"Walmart Distribution Center","area":"31,400","country":"United States","year_opened":1993.00,"state":"Indiana","postal_code":"47933","owner":"Walmart","id":68,"street_address":"801 Corda Boulevard","description":"Optical Lab / Plant."}},{"geometry":{"type":"Point","coordinates":[-83.51,31.45]},"type":"Feature","id":"df5b0739d4","clipped":true,"properties":{"city":"Tifton","name":"Walmart Distribution Center","area":"86,500","country":"United States","year_opened":1988.00,"state":"Georgia","postal_code":null,"owner":"Walmart","id":74,"street_address":"","description":"Pharmacy Distribution Center."}},{"geometry":{"type":"Point","coordinates":[-77.81,39.62]},"type":"Feature","id":"e6e21ab739","clipped":true,"properties":{"city":"Williamsport","name":"Walmart Distribution Center","area":"66,300","country":"United States","year_opened":1997.00,"state":"Maryland","postal_code":"21795","owner":"Walmart","id":75,"street_address":"11121 Elliott Place","description":"Converted a Photo lab into a Pharmaceutical Distribution Center."}},{"geometry":{"type":"Point","coordinates":[-86.03,39.82]},"type":"Feature","id":"62cf66c766","clipped":true,"properties":{"city":"Indianapolis","name":"Walmart Distribution Center","area":"266,400","country":"United States","year_opened":null,"state":"Indiana","postal_code":"46226","owner":"Walmart","id":80,"street_address":"3333 North Franklin Road","description":"Outsourced to 3PL Exel Logistics. Walmart Return Distribution Center."}},{"geometry":{"type":"Point","coordinates":[-74.39,42.99]},"type":"Feature","id":"010df02519","clipped":true,"properties":{"city":"Johnstown","name":"Walmart Distribution Center","area":"207,600","country":"United States","year_opened":1996.00,"state":"New York","postal_code":"12095","owner":"Walmart","id":82,"street_address":"161 Enterprise Road","description":"Outsourced to 3PL Power Logistics of Exel North American Logistics, Inc. Walmart Return Distribution Center."}},{"geometry":{"type":"Point","coordinates":[-82.04,35.00]},"type":"Feature","id":"2d181d0c01","clipped":true,"properties":{"city":"Spartanburg","name":"Walmart Distribution Center","area":"266,400","country":"United States","year_opened":2009.00,"state":"South Carolina","postal_code":"29303","owner":"Walmart","id":83,"street_address":"5795 North Blackstock Road","description":"Outsourced to 3PL Exel Logistics. Walmart Return Distribution Center that replaced a Return center in Macon GA which was closed Sep 2009."}},{"geometry":{"type":"Point","coordinates":[-84.15,33.45]},"type":"Feature","id":"2a5eef2cb5","clipped":true,"properties":{"city":"McDonough","name":"Walmart Distribution Center","area":"357,120","country":"United States","year_opened":2001.00,"state":"Georgia","postal_code":null,"owner":"Walmart","id":87,"street_address":"","description":"Outsourced to 3PL Exel Logistics. Tire Distribution Center that ships tires to over 700 Walmart and Sam's Club stores in the Southeast."}},{"geometry":{"type":"Point","coordinates":[-66.12,18.40]},"type":"Feature","id":"43deddaca4","clipped":true,"properties":{"city":"Guaynabo","name":"Walmart Distribution Center","area":"355,000","country":"Puerto Rico","year_opened":null,"state":"Guaynabo Municipio","postal_code":"00968","owner":"Walmart","id":89,"street_address":"","description":"RDC to service GM and Food to Puerto Rico for all Walmart and Sam's Club stores."}},{"geometry":{"type":"Point","coordinates":[-85.12,33.64]},"type":"Feature","id":"544ac12e4d","clipped":true,"properties":{"city":"Carrollton","name":"Walmart Distribution Center","area":"1,000,000","country":"United States","year_opened":2002.00,"state":"Georgia","postal_code":"30117","owner":"Walmart","id":90,"street_address":"3101 U.S. 27","description":"Dedicated Walmart.com distribution center."}},{"geometry":{"type":"Point","coordinates":[-75.33,40.61]},"type":"Feature","id":"3690d1d4b1","clipped":true,"properties":{"city":"Bethlehem","name":"Walmart Distribution Center","area":"1,200,000","country":"United States","year_opened":null,"state":"Pennsylvania","postal_code":"18015","owner":"Walmart","id":92,"street_address":"2785 Commerce Center Boulevard","description":"Dedicated Walmart.com distribution center."}},{"geometry":{"type":"Point","coordinates":[-81.20,32.16]},"type":"Feature","id":"c0b55f77a5","clipped":true,"properties":{"city":"Savanna","name":"Walmart Distribution Center","area":"800,000","country":"United States","year_opened":2001.00,"state":"Georgia","postal_code":"31407","owner":"Walmart","id":97,"street_address":"163 Portside Court","description":"Import Center that was closed in 2008 and consolidated into the Statesboro, GA facility."}},{"geometry":{"type":"Point","coordinates":[-79.91,32.91]},"type":"Feature","id":"bf018707fd","clipped":true,"properties":{"city":"Charleston","name":"Walmart Distribution Center","area":"560,000","country":"United States","year_opened":2002.00,"state":"South Carolina","postal_code":"29492","owner":"Walmart","id":98,"street_address":"1080 Charleston Regional Parkway","description":"Import Center constructed for Walmart in a FTZ Zone in 2001-2002 and closed in 2006."}},{"geometry":{"type":"Point","coordinates":[-82.94,39.84]},"type":"Feature","id":"5a33230e37","clipped":true,"properties":{"city":"Bourne","name":"Walmart Distribution Center","area":"414,000","country":"United States","year_opened":2001.00,"state":"Ohio","postal_code":"43137","owner":"Walmart","id":99,"street_address":"2525 Rohr Road","description":"Optical Lab closed in Mar 2009."}},{"geometry":{"type":"Point","coordinates":[-86.83,39.64]},"type":"Feature","id":"55bbba4907","clipped":true,"properties":{"city":"Greencastle","name":"Walmart Distribution Center","area":"1,515,000","country":"United States","year_opened":1991.00,"state":"Indiana","postal_code":"46135","owner":"Walmart","id":103,"street_address":"333 South 10th Street","description":"Originally constructed to 937,000 sq ft. Expanded twice since 1991. 15 miles of conveyor."}},{"geometry":{"type":"Point","coordinates":[-82.00,34.55]},"type":"Feature","id":"b3d4147800","clipped":true,"properties":{"city":"Laurens","name":"Walmart Distribution Center","area":"1,630,860","country":"United States","year_opened":1988.00,"state":"South Carolina","postal_code":"29360","owner":"Walmart","id":105,"street_address":"1050 Vern Cora Road","description":"Originally constructed to 583,000 sq ft;. Expanded in 1992. Facility converted into a Fashion DC in 2002."}},{"geometry":{"type":"Point","coordinates":[-79.64,39.21]},"type":"Feature","id":"429a2c8370","clipped":true,"properties":{"city":"Parsons","name":"Walmart Distribution Center","area":"Unknown","country":"United States","year_opened":null,"state":"West Virginia","postal_code":"26287","owner":"Walmart","id":108,"street_address":"","description":null}},{"geometry":{"type":"Point","coordinates":[-85.82,31.72]},"type":"Feature","id":"7d161c105a","clipped":true,"properties":{"city":"Brundidge","name":"Walmart Distribution Center","area":"890,000","country":"United States","year_opened":2003.00,"state":"Alabama","postal_code":null,"owner":"Walmart","id":110,"street_address":"","description":"Swisslog automation in the Perishables complex."}},{"geometry":{"type":"Point","coordinates":[-85.32,32.70]},"type":"Feature","id":"9fa1ab463d","clipped":true,"properties":{"city":"Opelika","name":"Walmart Distribution Center","area":"880,000","country":"United States","year_opened":2000.00,"state":"Alabama","postal_code":"36801","owner":"Walmart","id":111,"street_address":"2701 Andrews Road","description":"Originally constructed to 450,000 sq ft."}},{"geometry":{"type":"Point","coordinates":[-81.95,27.04]},"type":"Feature","id":"a38dd26574","clipped":true,"properties":{"city":"Arcadia","name":"Walmart Distribution Center","area":"940,000","country":"United States","year_opened":2005.00,"state":"Florida","postal_code":"34269","owner":"Walmart","id":114,"street_address":"6785 Southwest Enterprize Boulevard","description":"Swisslog automation in the Perishables complex."}},{"geometry":{"type":"Point","coordinates":[-82.09,30.29]},"type":"Feature","id":"b194e0194d","clipped":true,"properties":{"city":"Macclenny","name":"Walmart Distribution Center","area":"880,000","country":"United States","year_opened":2002.00,"state":"Florida","postal_code":"32063","owner":"Walmart","id":115,"street_address":"2686 Commerce Road","description":null}},{"geometry":{"type":"Point","coordinates":[-81.68,28.07]},"type":"Feature","id":"8713b199e6","clipped":true,"properties":{"city":"Winter Haven","name":"Walmart Distribution Center","area":"1,000,000","country":"United States","year_opened":1996.00,"state":"Florida","postal_code":"33881","owner":"Walmart","id":116,"street_address":"5600 Highway 544","description":null}},{"geometry":{"type":"Point","coordinates":[-83.68,33.81]},"type":"Feature","id":"deadfecfe4","clipped":true,"properties":{"city":"Monroe","name":"Walmart Distribution Center","area":"880,000","country":"United States","year_opened":2000.00,"state":"Georgia","postal_code":"30655","owner":"Walmart","id":117,"street_address":"655 Unisia Drive","description":"Originally constructed as a Perishables DC at 480,000 sq ft . Added 400,000 sq ft of Dry Grocery space in 2006."}},{"geometry":{"type":"Point","coordinates":[-88.09,38.73]},"type":"Feature","id":"ef6cd5f587","clipped":true,"properties":{"city":"Olney","name":"Walmart Distribution Center","area":"933,100","country":"United States","year_opened":1997.00,"state":"Illinois","postal_code":"62450","owner":"Walmart","id":118,"street_address":"","description":"Originally constructed as a Perishables DC at 480,000 sq ft . Expanded in 2003."}},{"geometry":{"type":"Point","coordinates":[-89.79,41.78]},"type":"Feature","id":"1ef5054c87","clipped":true,"properties":{"city":"Sterling","name":"Walmart Distribution Center","area":"1,000,000","country":"United States","year_opened":2006.00,"state":"Illinois","postal_code":"61081","owner":"Walmart","id":119,"street_address":"23769 Mathew Road","description":"Swisslog automation in the Perishables complex."}},{"geometry":{"type":"Point","coordinates":[-85.58,40.47]},"type":"Feature","id":"513db3aa5b","clipped":true,"properties":{"city":"Gas City","name":"Walmart Distribution Center","area":"990,000","country":"United States","year_opened":2007.00,"state":"Indiana","postal_code":"46933","owner":"Walmart","id":120,"street_address":"100 Fisher Parkway","description":"Swisslog automation in the Perishables complex."}},{"geometry":{"type":"Point","coordinates":[-84.15,37.15]},"type":"Feature","id":"2998c82853","clipped":true,"properties":{"city":"London","name":"Walmart Distribution Center","area":"867,000","country":"United States","year_opened":1995.00,"state":"Kentucky","postal_code":"40741","owner":"Walmart","id":121,"street_address":"3701 Russell Dyche Memorial Highway","description":"Walmart's 3rd Grocery distribution center."}},{"geometry":{"type":"Point","coordinates":[-70.19,44.06]},"type":"Feature","id":"bec07c7485","clipped":true,"properties":{"city":"Lewiston","name":"Walmart Distribution Center","area":"892,700","country":"United States","year_opened":2005.00,"state":"Maine","postal_code":"04240","owner":"Walmart","id":123,"street_address":"31 Alfred A Plourde Parkway","description":"Originally constructed to 447,055 sq ft for Dry Grocery; Expanded to include Perishables in Apr 2007. Swisslog Automation in Perishables."}},{"geometry":{"type":"Point","coordinates":[-88.98,34.50]},"type":"Feature","id":"71b0b3b8f7","clipped":true,"properties":{"city":"Albany","name":"Walmart Distribution Center","area":"867,000","country":"United States","year_opened":1996.00,"state":"Mississippi","postal_code":"38652","owner":"Walmart","id":125,"street_address":"973 Highway 30","description":null}},{"geometry":{"type":"Point","coordinates":[-74.41,42.99]},"type":"Feature","id":"97dd6a47c7","clipped":true,"properties":{"city":"Johnstown","name":"Walmart Distribution Center","area":"868,000","country":"United States","year_opened":2000.00,"state":"New York","postal_code":"12095","owner":"Walmart","id":129,"street_address":"300 Enterprise Road","description":null}},{"geometry":{"type":"Point","coordinates":[-83.40,39.52]},"type":"Feature","id":"cdb14cbb33","clipped":true,"properties":{"city":"Washington","name":"Walmart Distribution Center","area":"880,000","country":"United States","year_opened":2002.00,"state":"Ohio","postal_code":"43160","owner":"Walmart","id":130,"street_address":"1400 Old Chillicothe Road Southeast","description":null}},{"geometry":{"type":"Point","coordinates":[-80.74,40.41]},"type":"Feature","id":"d82767d258","clipped":true,"properties":{"city":"Wintersville","name":"Walmart Distribution Center","area":"880,000","country":"United States","year_opened":2003.00,"state":"Ohio","postal_code":"43952","owner":"Walmart","id":131,"street_address":"843 Route 43","description":null}},{"geometry":{"type":"Point","coordinates":[-78.54,39.92]},"type":"Feature","id":"c3496efd31","clipped":true,"properties":{"city":"Bedford","name":"Walmart Distribution Center","area":"830,000","country":"United States","year_opened":1998.00,"state":"Pennsylvania","postal_code":"15522","owner":"Walmart","id":134,"street_address":"","description":null}},{"geometry":{"type":"Point","coordinates":[-76.32,40.73]},"type":"Feature","id":"18d2c48536","clipped":true,"properties":{"city":"Pottsville","name":"Walmart Distribution Center","area":"900,000","country":"United States","year_opened":2006.00,"state":"Pennsylvania","postal_code":"17901","owner":"Walmart","id":135,"street_address":"390 Highridge Park Road","description":"Swisslog automation in the Perishables complex."}},{"geometry":{"type":"Point","coordinates":[-80.41,34.80]},"type":"Feature","id":"21dfccf7e5","clipped":true,"properties":{"city":"Page","name":"Walmart Distribution Center","area":"830,000","country":"United States","year_opened":1997.00,"state":"South Carolina","postal_code":"29728","owner":"Walmart","id":136,"street_address":"160 State Road S-13-682","description":"Facility was expanded in 2003."}},{"geometry":{"type":"Point","coordinates":[-86.46,35.57]},"type":"Feature","id":"8491cd76d6","clipped":true,"properties":{"city":"Shelbyville","name":"Walmart Distribution Center","area":"850,000","country":"United States","year_opened":2001.00,"state":"Tennessee","postal_code":"37160","owner":"Walmart","id":137,"street_address":"285 Frank Martin Road","description":"Originally constructed as a Perishables facility of 370,000 sq ft. Facility was expanded in Nov 2005."}},{"geometry":{"type":"Point","coordinates":[-78.20,37.98]},"type":"Feature","id":"e5d7f66319","clipped":true,"properties":{"city":"Gordon","name":"Walmart Distribution Center","area":"880,000","country":"United States","year_opened":2003.00,"state":"Virginia","postal_code":"22942","owner":"Walmart","id":142,"street_address":"10695 Freedom Trail","description":"Facility expanded in 2009."}},{"geometry":{"type":"Point","coordinates":[-85.11,41.37]},"type":"Feature","id":"3e8e84f24f","clipped":true,"properties":{"city":"Auburn","name":"Walmart Distribution Center","area":"400,000","country":"United States","year_opened":2001.00,"state":"Indiana","postal_code":"46706","owner":"Walmart","id":148,"street_address":"1729 State Road 8","description":null}},{"geometry":{"type":"Point","coordinates":[-78.38,36.29]},"type":"Feature","id":"aa1b1368dc","clipped":true,"properties":{"city":"Henderson","name":"Walmart Distribution Center","area":"400,000","country":"United States","year_opened":2002.00,"state":"North Carolina","postal_code":"27537","owner":"Walmart","id":150,"street_address":"680 Vanco Mill Road","description":null}},{"geometry":{"type":"Point","coordinates":[-79.27,36.10]},"type":"Feature","id":"46e3a2759f","clipped":true,"properties":{"city":"Mebane","name":"Walmart Distribution Center","area":"450,000","country":"United States","year_opened":null,"state":"North Carolina","postal_code":null,"owner":"Walmart","id":153,"street_address":"","description":"Perishables distribution center with construction set to begin in 2015. Anticipated go-live in mid-2016. 450 jobs."}},{"geometry":{"type":"Point","coordinates":[-81.83,32.39]},"type":"Feature","id":"0c8b08cbb0","clipped":true,"properties":{"city":"Antlers","name":"Walmart Distribution Center","area":"2,200,000","country":"United States","year_opened":1995.00,"state":"Georgia","postal_code":"30458","owner":"Walmart","id":159,"street_address":"299 Aj Riggs Road","description":"Started as a 1,700,000 sq ft DC and later expanded by 500,000 in 1999."}},{"geometry":{"type":"Point","coordinates":[-88.13,41.40]},"type":"Feature","id":"4d2c85bd8d","clipped":true,"properties":{"city":"Elwood","name":"Walmart Distribution Center","area":"3,400,000","country":"United States","year_opened":2006.00,"state":"Illinois","postal_code":"60421","owner":"Walmart","id":160,"street_address":"Center Point Drive","description":"Walmart Import Center run by 3PL Schneider Logistics. Campus of 2 buildings 1.4 & 1.8 M sq ft."}},{"geometry":{"type":"Point","coordinates":[-76.60,37.21]},"type":"Feature","id":"6ca938c0a8","clipped":true,"properties":{"city":"Williams","name":"Walmart Distribution Center","area":"3,000,000","country":"United States","year_opened":2000.00,"state":"Virginia","postal_code":"23185","owner":"Walmart","id":162,"street_address":"9305 Pocahontas Trail","description":"Originally constructed to 1,000,000 sq ft and later expanded to 2,000,000 sq ft in Nov 2001 and again expanded by 1,000,000 sq ft in 2004-2005. Campus of 2 buildings."}},{"geometry":{"type":"Point","coordinates":[-84.34,33.64]},"type":"Feature","id":"dc6c635f2a","clipped":true,"properties":{"city":"Conley","name":"Walmart Distribution Center","area":"53,360","country":"United States","year_opened":2011.00,"state":"Georgia","postal_code":null,"owner":"Walmart","id":167,"street_address":"","description":"3PL is Exel Logistics."}},{"geometry":{"type":"Point","coordinates":[-88.88,42.25]},"type":"Feature","id":"00e62b3e3e","clipped":true,"properties":{"city":"Belvidere","name":"Walmart Distribution Center","area":"177,800","country":"United States","year_opened":2011.00,"state":"Illinois","postal_code":"61008","owner":"Walmart","id":168,"street_address":"6765 Imron Drive","description":"Americold operates this facility which is a public cold storage facility."}},{"geometry":{"type":"Point","coordinates":[-87.50,41.64]},"type":"Feature","id":"801ee6d65a","clipped":true,"properties":{"city":"Hammond","name":"Walmart Distribution Center","area":"150,720","country":"United States","year_opened":2011.00,"state":"Indiana","postal_code":"46327","owner":"Walmart","id":169,"street_address":"1340 141st Street","description":"3PL is Linc Logistics Insight Corp."}},{"geometry":{"type":"Point","coordinates":[-80.69,35.38]},"type":"Feature","id":"7fc66f41d1","clipped":true,"properties":{"city":"Concord","name":"Walmart Distribution Center","area":"104,380","country":"United States","year_opened":2011.00,"state":"North Carolina","postal_code":"28027","owner":"Walmart","id":170,"street_address":"423 Pitts School Road Northwest","description":"3PL is Distribution Technology Inc."}},{"geometry":{"type":"Point","coordinates":[-75.31,41.04]},"type":"Feature","id":"4545827707","clipped":true,"properties":{"city":"Tannersville","name":"Walmart Distribution Center","area":"103,700","country":"United States","year_opened":2012.00,"state":"Pennsylvania","postal_code":null,"owner":"Walmart","id":171,"street_address":"","description":"3PL is MIQ Logistics Inc."}},{"geometry":{"type":"Point","coordinates":[-89.93,35.08]},"type":"Feature","id":"6d8c2be451","clipped":true,"properties":{"city":"Memphis","name":"Walmart Distribution Center","area":"93,100","country":"United States","year_opened":2011.00,"state":"Tennessee","postal_code":"38111","owner":"Walmart","id":172,"street_address":"1980 Getwell Road","description":"3PL is Linc Logistics Insight Corp."}},{"geometry":{"type":"Point","coordinates":[-83.51,31.45]},"type":"Feature","id":"9cf61126e3","clipped":true,"properties":{"city":"Tifton","name":"Target Distribution Center","area":"Unknown","country":"United States","year_opened":null,"state":"Georgia","postal_code":"31794","owner":"Target","id":178,"street_address":"208 East 5th Street","description":null}},{"geometry":{"type":"Point","coordinates":[-88.50,43.11]},"type":"Feature","id":"66d6ab662c","clipped":true,"properties":{"city":"Oconomowoc","name":"Target Distribution Center","area":"Unknown","country":"United States","year_opened":null,"state":"Wisconsin","postal_code":"53066","owner":"Target","id":179,"street_address":"105-107 North Main Street","description":null}},{"geometry":{"type":"Point","coordinates":[-86.34,39.67]},"type":"Feature","id":"2f6c3409b6","clipped":true,"properties":{"city":"Indianapolis","name":"Target Distribution Center","area":"Unknown","country":"United States","year_opened":null,"state":"Indiana","postal_code":"46231","owner":"Target","id":181,"street_address":"6201-6611 White Lick Creek Road","description":null}},{"geometry":{"type":"Point","coordinates":[-79.03,38.03]},"type":"Feature","id":"bf0476999b","clipped":true,"properties":{"city":"Stuart","name":"Target Distribution Center","area":"Unknown","country":"United States","year_opened":null,"state":"Virginia","postal_code":"24477","owner":"Target","id":182,"street_address":"122 Draft Avenue","description":null}},{"geometry":{"type":"Point","coordinates":[-73.61,43.13]},"type":"Feature","id":"aca5ab4cff","clipped":true,"properties":{"city":"Schuylerville","name":"Target Distribution Center","area":"Unknown","country":"United States","year_opened":null,"state":"New York","postal_code":"12871","owner":"Target","id":184,"street_address":"551 New York 32","description":null}},{"geometry":{"type":"Point","coordinates":[-76.52,36.80]},"type":"Feature","id":"739dd7dfc7","clipped":true,"properties":{"city":"Suffolk","name":"Target Distribution Center","area":"Unknown","country":"United States","year_opened":null,"state":"Virginia","postal_code":"23434","owner":"Target","id":185,"street_address":"3310 Nansemond Parkway","description":null}},{"geometry":{"type":"Point","coordinates":[-74.19,42.94]},"type":"Feature","id":"7e13169829","clipped":true,"properties":{"city":"Amsterdam","name":"Target Distribution Center","area":"Unknown","country":"United States","year_opened":null,"state":"New York","postal_code":"12010","owner":"Target","id":187,"street_address":"61 Church Street","description":null}},{"geometry":{"type":"Point","coordinates":[-83.27,39.94]},"type":"Feature","id":"0c06880a27","clipped":true,"properties":{"city":"Estherville","name":"Target Distribution Center","area":"Unknown","country":"United States","year_opened":null,"state":"Ohio","postal_code":"43162","owner":"Target","id":189,"street_address":"1-19 West Main Street","description":null}},{"geometry":{"type":"Point","coordinates":[-81.43,31.81]},"type":"Feature","id":"d14695d7b7","clipped":true,"properties":{"city":"Midway","name":"Target Distribution Center","area":"Unknown","country":"United States","year_opened":null,"state":"Georgia","postal_code":"31320","owner":"Target","id":192,"street_address":"North Coastal Highway","description":null}},{"geometry":{"type":"Point","coordinates":[-88.75,41.93]},"type":"Feature","id":"238e311e29","clipped":true,"properties":{"city":"DeKalb","name":"Target Distribution Center","area":"Unknown","country":"United States","year_opened":null,"state":"Illinois","postal_code":"60115","owner":"Target","id":193,"street_address":"300-398 Lincoln Highway","description":null}},{"geometry":{"type":"Point","coordinates":[-81.19,32.14]},"type":"Feature","id":"02820660d6","clipped":true,"properties":{"city":"Savanna","name":"Target Distribution Center","area":"Unknown","country":"United States","year_opened":null,"state":"Georgia","postal_code":"31408","owner":"Target","id":194,"street_address":"Robert B. Miller Road","description":null}},{"geometry":{"type":"Point","coordinates":[-81.22,35.67]},"type":"Feature","id":"74ff2f9fb7","clipped":true,"properties":{"city":"Newton","name":"Target Distribution Center","area":"Unknown","country":"United States","year_opened":null,"state":"North Carolina","postal_code":"28658","owner":"Target","id":195,"street_address":"701-799 Highway 16 Business","description":null}},{"geometry":{"type":"Point","coordinates":[-82.64,30.19]},"type":"Feature","id":"ef343aac13","clipped":true,"properties":{"city":"Lake City","name":"Target Distribution Center","area":"Unknown","country":"United States","year_opened":null,"state":"Florida","postal_code":"32055","owner":"Target","id":196,"street_address":"1-99 Highway 100","description":null}},{"geometry":{"type":"Point","coordinates":[-86.75,34.70]},"type":"Feature","id":"ad78b4c7a9","clipped":true,"properties":{"city":"Madison","name":"Target Distribution Center","area":"Unknown","country":"United States","year_opened":null,"state":"Alabama","postal_code":"35758","owner":"Target","id":203,"street_address":"327-399 Church Street","description":null}},{"geometry":{"type":"Point","coordinates":[-85.42,42.29]},"type":"Feature","id":"068bc0c433","clipped":true,"properties":{"city":"Alpine","name":"Target Distribution Center","area":"Unknown","country":"United States","year_opened":null,"state":"Michigan","postal_code":"49053","owner":"Target","id":204,"street_address":"Mill Street","description":null}},{"geometry":{"type":"Point","coordinates":[-77.66,39.94]},"type":"Feature","id":"54e52fcc8d","clipped":true,"properties":{"city":"Chambersburg","name":"Target Distribution Center","area":"Unknown","country":"United States","year_opened":null,"state":"Pennsylvania","postal_code":"17201","owner":"Target","id":206,"street_address":"101-171 Lincoln Highway","description":null}},{"geometry":{"type":"Point","coordinates":[-80.69,34.23]},"type":"Feature","id":"426ce27a82","clipped":true,"properties":{"city":"Lugoff","name":"Target Distribution Center","area":"6,789,086","country":"United States","year_opened":null,"state":"South Carolina","postal_code":"29078","owner":"Target","id":209,"street_address":"922-936 Highway 34","description":"<p>Test</p>"}},{"geometry":{"type":"Point","coordinates":[-83.07,40.30]},"type":"Feature","id":"b88a403a33","clipped":true,"properties":{"city":"Delaware","name":"Great Lakes Distribution Center","area":"Unknown","country":"United States","year_opened":null,"state":"Ohio","postal_code":null,"owner":"Krogers","id":211,"street_address":"","description":null}},{"geometry":{"type":"Point","coordinates":[-89.87,35.01]},"type":"Feature","id":"e925922a89","clipped":true,"properties":{"city":"Memphis","name":"Kroger Distribution Center","area":"Unknown","country":"United States","year_opened":null,"state":"Tennessee","postal_code":"38141","owner":"Krogers","id":213,"street_address":"5079 Bledsoe Road","description":null}},{"geometry":{"type":"Point","coordinates":[-89.93,35.03]},"type":"Feature","id":"58966e3095","clipped":true,"properties":{"city":"Memphis","name":"Kroger Distribution Center","area":"Unknown","country":"United States","year_opened":null,"state":"Tennessee","postal_code":"38118","owner":"Krogers","id":214,"street_address":"4524 Delp Street","description":null}},{"geometry":{"type":"Point","coordinates":[-83.76,40.27]},"type":"Feature","id":"b5c5b4fe0e","clipped":true,"properties":{"city":"Estherville","name":"Kroger Northern Floral Distribution Center","area":"Unknown","country":"United States","year_opened":null,"state":"Ohio","postal_code":"43357","owner":"Krogers","id":215,"street_address":"6893 County Road 14","description":null}},{"geometry":{"type":"Point","coordinates":[-82.28,34.74]},"type":"Feature","id":"aa465af5d3","clipped":true,"properties":{"city":"Simpsonville","name":"Kroger Southeastern Floral Distribution Center","area":"Unknown","country":"United States","year_opened":null,"state":"South Carolina","postal_code":"29680","owner":"Krogers","id":216,"street_address":"136 Blakely Road","description":null}},{"geometry":{"type":"Point","coordinates":[-86.53,36.61]},"type":"Feature","id":"8ef4612fce","clipped":true,"properties":{"city":"Portland","name":"Peyton's Midsouth Distribution Center","area":"Unknown","country":"United States","year_opened":null,"state":"Tennessee","postal_code":"37148","owner":"Krogers","id":227,"street_address":"120 Kirby Drive","description":null}},{"geometry":{"type":"Point","coordinates":[-84.90,35.14]},"type":"Feature","id":"7cc8317bf9","clipped":true,"properties":{"city":"Cleveland","name":"Peyton's Southeastern Distribution Center","area":"Unknown","country":"United States","year_opened":null,"state":"Tennessee","postal_code":"37311","owner":"Krogers","id":228,"street_address":"153 Refreshment Lane Southwest","description":null}},{"geometry":{"type":"Point","coordinates":[-85.20,40.73]},"type":"Feature","id":"2798b24f7d","clipped":true,"properties":{"city":"Bluffton","name":"Peyton's Northern Distribution Center","area":"Unknown","country":"United States","year_opened":null,"state":"Indiana","postal_code":"46714","owner":"Krogers","id":229,"street_address":"1111 South Adams Street","description":null}},{"geometry":{"type":"Point","coordinates":[-80.13,26.76]},"type":"Feature","id":"67f5999b94","clipped":true,"properties":{"city":"West Palm Beach","name":"Costco Distribution Center","area":"Unknown","country":"United States","year_opened":null,"state":"Florida","postal_code":"33407","owner":"Costco","id":237,"street_address":"5851 45th Street","description":null}},{"geometry":{"type":"Point","coordinates":[-84.53,33.62]},"type":"Feature","id":"ad619a16e7","clipped":true,"properties":{"city":"Atlanta","name":"Costco Distribution Center","area":"Unknown","country":"United States","year_opened":null,"state":"Georgia","postal_code":"30349","owner":"Costco","id":238,"street_address":"4250 South Fulton Parkway","description":null}},{"geometry":{"type":"Point","coordinates":[-88.43,41.40]},"type":"Feature","id":"eb4d36fdda","clipped":true,"properties":{"city":"Morristown","name":"Costco Distribution Center","area":"Unknown","country":"United States","year_opened":null,"state":"Illinois","postal_code":"60450","owner":"Costco","id":239,"street_address":"3800 North Division Street","description":null}},{"geometry":{"type":"Point","coordinates":[-77.28,39.37]},"type":"Feature","id":"db8db19846","clipped":true,"properties":{"city":"Monrovia","name":"Costco Distribution Center","area":"Unknown","country":"United States","year_opened":null,"state":"Maryland","postal_code":"21770","owner":"Costco","id":240,"street_address":"5236 Intercoastal Drive","description":null}},{"geometry":{"type":"Point","coordinates":[-74.46,40.36]},"type":"Feature","id":"c8e82d6533","clipped":true,"properties":{"city":"Monroe","name":"Costco Distribution Center","area":"Unknown","country":"United States","year_opened":null,"state":"New Jersey","postal_code":"08831","owner":"Costco","id":241,"street_address":"Costco Drive","description":null}},{"geometry":{"type":"Point","coordinates":[-75.29,40.73]},"type":"Feature","id":"c965ab548f","clipped":true,"properties":{"city":"Easton","name":"Walgreen's Distribution Center","area":"Unknown","country":"United States","year_opened":null,"state":"Pennsylvania","postal_code":"18045","owner":"Walgreens","id":246,"street_address":"3850 Prologis Parkway","description":"Regional Full Case Warehouses; "}},{"geometry":{"type":"Point","coordinates":[-82.58,34.63]},"type":"Feature","id":"38c1fc1447","clipped":true,"properties":{"city":"Williams","name":"Walgreen's Distribution Center","area":"Unknown","country":"United States","year_opened":null,"state":"South Carolina","postal_code":"29697","owner":"Walgreens","id":248,"street_address":"101 Alliance Parkway","description":"Walgreens Distribution Center; Anderson Distribution Center"}},{"geometry":{"type":"Point","coordinates":[-75.38,40.68]},"type":"Feature","id":"b0f0a58b28","clipped":true,"properties":{"city":"Bethlehem","name":"Walgreen's Distribution Center","area":"Unknown","country":"United States","year_opened":null,"state":"Pennsylvania","postal_code":"18017","owner":"Walgreens","id":250,"street_address":"125 North Commerce Way","description":"Walgreens Distribution Center; "}},{"geometry":{"type":"Point","coordinates":[-80.26,26.91]},"type":"Feature","id":"56b6f4ad96","clipped":true,"properties":{"city":"Jupiter","name":"Walgreen's Distribution Center","area":"Unknown","country":"United States","year_opened":null,"state":"Florida","postal_code":"33478","owner":"Walgreens","id":252,"street_address":"15998 Walgreens Drive","description":"Walgreens Distribution Center; "}},{"geometry":{"type":"Point","coordinates":[-82.94,39.96]},"type":"Feature","id":"c3cdf4398b","clipped":true,"properties":{"city":"Bexley","name":"Walgreen's Distribution Center","area":"Unknown","country":"United States","year_opened":null,"state":"Ohio","postal_code":"43209","owner":"Walgreens","id":256,"street_address":"2370 East Main Street","description":"Walgreens Distribution Center; "}},{"geometry":{"type":"Point","coordinates":[-81.41,28.46]},"type":"Feature","id":"15606a7511","clipped":true,"properties":{"city":"Orlando","name":"Walgreen's Distribution Center","area":"Unknown","country":"United States","year_opened":null,"state":"Florida","postal_code":"32809","owner":"Walgreens","id":258,"street_address":"2455 Premier Row","description":"Walgreens Distribution Center; "}},{"geometry":{"type":"Point","coordinates":[-83.54,41.57]},"type":"Feature","id":"5b2178d1b2","clipped":true,"properties":{"city":"Perry","name":"Walgreen's Distribution Center","area":"Unknown","country":"United States","year_opened":null,"state":"Ohio","postal_code":"43551","owner":"Walgreens","id":261,"street_address":"28727 Oregon Road","description":"Walgreens Distribution Center; "}},{"geometry":{"type":"Point","coordinates":[-83.60,34.20]},"type":"Feature","id":"28f9127799","clipped":true,"properties":{"city":"Ranger","name":"Walgreen's Distribution Center","area":"Unknown","country":"United States","year_opened":null,"state":"Georgia","postal_code":"30567","owner":"Walgreens","id":262,"street_address":"350 Raco Parkway","description":"Regional Full Case Warehouses; "}},{"geometry":{"type":"Point","coordinates":[-88.08,41.67]},"type":"Feature","id":"1da7c2d410","clipped":true,"properties":{"city":"Bolingbrook","name":"Walgreen's Distribution Center","area":"Unknown","country":"United States","year_opened":null,"state":"Illinois","postal_code":"60440","owner":"Walgreens","id":263,"street_address":"370 West Crossroads Parkway","description":"Walgreens Distribution Center; \"New Store Openings\""}},{"geometry":{"type":"Point","coordinates":[-80.28,33.22]},"type":"Feature","id":"1c1fe2e3ec","clipped":true,"properties":{"city":"Ida Grove","name":"Walgreen's Distribution Center","area":"Unknown","country":"United States","year_opened":null,"state":"South Carolina","postal_code":"29472","owner":"Walgreens","id":264,"street_address":"4400 State Road","description":"Walgreens Distribution Center; "}},{"geometry":{"type":"Point","coordinates":[-73.92,40.73]},"type":"Feature","id":"f840f75e6f","clipped":true,"properties":{"city":"Queens","name":"Walgreen's Distribution Center","area":"Unknown","country":"United States","year_opened":null,"state":"New York","postal_code":"11378","owner":"Walgreens","id":265,"street_address":"50-02 55th Avenue","description":"Walgreens Distribution Center; DuaneReade Distribution Center"}},{"geometry":{"type":"Point","coordinates":[-87.90,41.89]},"type":"Feature","id":"344a36c95b","clipped":true,"properties":{"city":"Berkeley","name":"Walgreen's Distribution Center","area":"Unknown","country":"United States","year_opened":null,"state":"Illinois","postal_code":"60163","owner":"Walgreens","id":266,"street_address":"5300 Saint Charles Road","description":"Walgreens Distribution Center; "}},{"geometry":{"type":"Point","coordinates":[-81.09,40.73]},"type":"Feature","id":"7878741482","clipped":true,"properties":{"city":"Minerva","name":"Walgreen's Distribution Center","area":"Unknown","country":"United States","year_opened":null,"state":"Ohio","postal_code":"44657","owner":"Walgreens","id":268,"street_address":"730 U.S. 30","description":"Walgreens Distribution Center; Walgreens Return Center"}},{"geometry":{"type":"Point","coordinates":[-80.34,26.13]},"type":"Feature","id":"b8149b6f47","clipped":true,"properties":{"city":"Sunrise","name":"Walgreen's Distribution Center","area":"Unknown","country":"United States","year_opened":null,"state":"Florida","postal_code":"33325","owner":"Walgreens","id":269,"street_address":"80 International Parkway","description":"Walgreens Distribution Center; "}},{"geometry":{"type":"Point","coordinates":[-75.59,39.66]},"type":"Feature","id":"51d2354d90","clipped":true,"properties":{"city":"New Castle","name":"Amazon Distribution Center #PHL1","area":"Unknown","country":"United States","year_opened":null,"state":"Delaware","postal_code":"19720","owner":"Amazon","id":278,"street_address":"1 Centerpoint Boulevard","description":null}},{"geometry":{"type":"Point","coordinates":[-75.59,39.66]},"type":"Feature","id":"6974d7c84f","clipped":true,"properties":{"city":"New Castle","name":"Amazon Distribution Center #PHL3","area":"Unknown","country":"United States","year_opened":null,"state":"Delaware","postal_code":"19720","owner":"Amazon","id":279,"street_address":"1600 Johnson Way","description":null}},{"geometry":{"type":"Point","coordinates":[-75.74,39.44]},"type":"Feature","id":"563345ce24","clipped":true,"properties":{"city":"Middletown","name":"Amazon Distribution Center #PHL7","area":"Unknown","country":"United States","year_opened":null,"state":"Delaware","postal_code":"19709","owner":"Amazon","id":280,"street_address":"560 Merrimac Avenue","description":null}},{"geometry":{"type":"Point","coordinates":[-75.72,39.46]},"type":"Feature","id":"dec1bdf835","clipped":true,"properties":{"city":"Middletown","name":"Amazon Distribution Center #PHL8","area":"Unknown","country":"United States","year_opened":null,"state":"Delaware","postal_code":"19709","owner":"Amazon","id":281,"street_address":"727 North Broad Street","description":null}},{"geometry":{"type":"Point","coordinates":[-85.73,38.29]},"type":"Feature","id":"f6ae683693","clipped":true,"properties":{"city":"Jefferson","name":"Amazon Distribution Center #IND6","area":"Unknown","country":"United States","year_opened":null,"state":"Indiana","postal_code":"47130","owner":"Amazon","id":282,"street_address":"1453 East 10th Street","description":null}},{"geometry":{"type":"Point","coordinates":[-86.38,39.98]},"type":"Feature","id":"f3c7f7d3da","clipped":true,"properties":{"city":"Stow","name":"Amazon Distribution Center #IND1","area":"Unknown","country":"United States","year_opened":null,"state":"Indiana","postal_code":"46075","owner":"Amazon","id":283,"street_address":"4255 Anson Boulevard","description":null}},{"geometry":{"type":"Point","coordinates":[-86.38,39.97]},"type":"Feature","id":"ff7b191e1d","clipped":true,"properties":{"city":"Estherville","name":"Amazon Distribution Center #XUSE","area":"Unknown","country":"United States","year_opened":null,"state":"Indiana","postal_code":"46075","owner":"Amazon","id":284,"street_address":"5100 South Indianapolis Road","description":null}},{"geometry":{"type":"Point","coordinates":[-86.29,39.76]},"type":"Feature","id":"ddff7a6373","clipped":true,"properties":{"city":"Indiana","name":"Amazon Distribution Center #IND4","area":"Unknown","country":"United States","year_opened":null,"state":"Indiana","postal_code":"46214","owner":"Amazon","id":285,"street_address":"710 South Girls School Road","description":null}},{"geometry":{"type":"Point","coordinates":[-86.34,39.70]},"type":"Feature","id":"dfc3f10c8a","clipped":true,"properties":{"city":"Plainfield","name":"Amazon Distribution Center #IND2","area":"Unknown","country":"United States","year_opened":null,"state":"Indiana","postal_code":"46168","owner":"Amazon","id":286,"street_address":"715 Airtech Parkway","description":null}},{"geometry":{"type":"Point","coordinates":[-86.36,39.70]},"type":"Feature","id":"ee7e286686","clipped":true,"properties":{"city":"Plainfield","name":"Amazon Distribution Center #IND5","area":"Unknown","country":"United States","year_opened":null,"state":"Indiana","postal_code":"46168","owner":"Amazon","id":287,"street_address":"800 Perry Road","description":null}},{"geometry":{"type":"Point","coordinates":[-85.69,38.38]},"type":"Feature","id":"24e3639b5f","clipped":true,"properties":{"city":"Jefferson","name":"Amazon Distribution Center #SDF8","area":"Unknown","country":"United States","year_opened":null,"state":"Indiana","postal_code":"47130","owner":"Amazon","id":288,"street_address":"900 Patrol Road","description":null}},{"geometry":{"type":"Point","coordinates":[-85.35,37.33]},"type":"Feature","id":"98082ca2ba","clipped":true,"properties":{"city":"Campbell","name":"Amazon Distribution Center #SDF1","area":"Unknown","country":"United States","year_opened":null,"state":"Kentucky","postal_code":"42718","owner":"Amazon","id":290,"street_address":"1105 South Columbia Avenue","description":null}},{"geometry":{"type":"Point","coordinates":[-85.69,38.20]},"type":"Feature","id":"a08e2f2ba8","clipped":true,"properties":{"city":"Louisville","name":"Amazon Distribution Center #SDF2","area":"Unknown","country":"United States","year_opened":null,"state":"Kentucky","postal_code":"40218","owner":"Amazon","id":291,"street_address":"4360 Robards Lane","description":null}},{"geometry":{"type":"Point","coordinates":[-84.71,39.08]},"type":"Feature","id":"3cb4f028d6","clipped":true,"properties":{"city":"Hebron","name":"Amazon Distribution Center #CVG1","area":"Unknown","country":"United States","year_opened":null,"state":"Kentucky","postal_code":"41048","owner":"Amazon","id":292,"street_address":"1155 Worldwide Boulevard","description":null}},{"geometry":{"type":"Point","coordinates":[-84.73,39.09]},"type":"Feature","id":"ca3ffc008a","clipped":true,"properties":{"city":"Hebron","name":"Amazon Distribution Center #CVG2","area":"Unknown","country":"United States","year_opened":null,"state":"Kentucky","postal_code":"41048","owner":"Amazon","id":293,"street_address":"1600 Worldwide Boulevard","description":null}},{"geometry":{"type":"Point","coordinates":[-84.72,39.06]},"type":"Feature","id":"4a8576a2bb","clipped":true,"properties":{"city":"Hebron","name":"Amazon Distribution Center #CVG3","area":"Unknown","country":"United States","year_opened":null,"state":"Kentucky","postal_code":"41048","owner":"Amazon","id":294,"street_address":"3680 Langley Drive","description":null}},{"geometry":{"type":"Point","coordinates":[-84.72,39.07]},"type":"Feature","id":"bb5c88624f","clipped":true,"properties":{"city":"Hebron","name":"Amazon Distribution Center #CVG5","area":"Unknown","country":"United States","year_opened":null,"state":"Kentucky","postal_code":"41048","owner":"Amazon","id":295,"street_address":"2285 Litton Lane","description":null}},{"geometry":{"type":"Point","coordinates":[-84.53,38.08]},"type":"Feature","id":"df70529fb9","clipped":true,"properties":{"city":"Lexington","name":"Amazon Distribution Center #LEX1","area":"Unknown","country":"United States","year_opened":null,"state":"Kentucky","postal_code":"40511","owner":"Amazon","id":296,"street_address":"1850 Mercer Road","description":null}},{"geometry":{"type":"Point","coordinates":[-84.55,38.07]},"type":"Feature","id":"c64bce1aa0","clipped":true,"properties":{"city":"Lexington","name":"Amazon Distribution Center #LEX2","area":"Unknown","country":"United States","year_opened":null,"state":"Kentucky","postal_code":"40511","owner":"Amazon","id":297,"street_address":"172 Trade Street","description":null}},{"geometry":{"type":"Point","coordinates":[-85.71,37.96]},"type":"Feature","id":"7b5443f834","clipped":true,"properties":{"city":"Ephrata","name":"Amazon Distribution Center #SDF4","area":"Unknown","country":"United States","year_opened":null,"state":"Kentucky","postal_code":"40165","owner":"Amazon","id":298,"street_address":"","description":null}},{"geometry":{"type":"Point","coordinates":[-85.68,37.97]},"type":"Feature","id":"8266219315","clipped":true,"properties":{"city":"Dansville","name":"Amazon Distribution Center #SDF6","area":"Unknown","country":"United States","year_opened":null,"state":"Kentucky","postal_code":"40165","owner":"Amazon","id":299,"street_address":"Omega Parkway","description":null}},{"geometry":{"type":"Point","coordinates":[-85.68,37.96]},"type":"Feature","id":"a54f18b562","clipped":true,"properties":{"city":"Ephrata","name":"Amazon Distribution Center #SDF7","area":"Unknown","country":"United States","year_opened":null,"state":"Kentucky","postal_code":"40165","owner":"Amazon","id":300,"street_address":"Omicron Court","description":null}},{"geometry":{"type":"Point","coordinates":[-85.72,37.99]},"type":"Feature","id":"830e693bd4","clipped":true,"properties":{"city":"Dansville","name":"Amazon Distribution Center #SDF9","area":"Unknown","country":"United States","year_opened":null,"state":"Kentucky","postal_code":"40165","owner":"Amazon","id":301,"street_address":"","description":null}},{"geometry":{"type":"Point","coordinates":[-71.53,42.79]},"type":"Feature","id":"88eb362328","clipped":true,"properties":{"city":"Nashua","name":"Amazon Distribution Center #BOS1","area":"Unknown","country":"United States","year_opened":null,"state":"New Hampshire","postal_code":"03063","owner":"Amazon","id":304,"street_address":"10 State Street","description":null}},{"geometry":{"type":"Point","coordinates":[-74.25,40.58]},"type":"Feature","id":"70eafba526","clipped":true,"properties":{"city":"Lakehurst","name":"Amazon Distribution Center #EWR5","area":"Unknown","country":"United States","year_opened":null,"state":"New Jersey","postal_code":"07001","owner":"Amazon","id":305,"street_address":"301 Blair Road","description":null}},{"geometry":{"type":"Point","coordinates":[-76.05,40.92]},"type":"Feature","id":"ec60c7f834","clipped":true,"properties":{"city":"Hazleton","name":"Amazon Distribution Center #AVP1","area":"Unknown","country":"United States","year_opened":null,"state":"Pennsylvania","postal_code":"18202","owner":"Amazon","id":306,"street_address":"550 Oakridge Road","description":null}},{"geometry":{"type":"Point","coordinates":[-75.62,40.56]},"type":"Feature","id":"37ec6ac84f","clipped":true,"properties":{"city":"Breinigsville","name":"Amazon Distribution Center #ABE2","area":"Unknown","country":"United States","year_opened":null,"state":"Pennsylvania","postal_code":"18031","owner":"Amazon","id":307,"street_address":"705 Boulder Drive","description":null}},{"geometry":{"type":"Point","coordinates":[-75.62,40.56]},"type":"Feature","id":"46505a6637","clipped":true,"properties":{"city":"Breinigsville","name":"Amazon Distribution Center #ABE3","area":"Unknown","country":"United States","year_opened":null,"state":"Pennsylvania","postal_code":"18031","owner":"Amazon","id":308,"street_address":"650 Boulder Drive","description":null}},{"geometry":{"type":"Point","coordinates":[-76.77,40.33]},"type":"Feature","id":"16144906ee","clipped":true,"properties":{"city":"Harrisburg","name":"Amazon Distribution Center #ABE5","area":"Unknown","country":"United States","year_opened":null,"state":"Pennsylvania","postal_code":"17112","owner":"Amazon","id":309,"street_address":"6455 Allentown Boulevard","description":null}},{"geometry":{"type":"Point","coordinates":[-76.84,40.17]},"type":"Feature","id":"3aaeebeb1c","clipped":true,"properties":{"city":null,"name":"Amazon Distribution Center #PHL5","area":"Unknown","country":"United States","year_opened":null,"state":"Pennsylvania","postal_code":"17339","owner":"Amazon","id":310,"street_address":"500 McCarthy Drive","description":null}},{"geometry":{"type":"Point","coordinates":[-77.23,40.18]},"type":"Feature","id":"1d8b050d5d","clipped":true,"properties":{"city":"Caribou","name":"Amazon Distribution Center #PHL6","area":"Unknown","country":"United States","year_opened":null,"state":"Pennsylvania","postal_code":"17015","owner":"Amazon","id":311,"street_address":"675 Allen Road","description":null}},{"geometry":{"type":"Point","coordinates":[-77.11,40.23]},"type":"Feature","id":"298376faf2","clipped":true,"properties":{"city":"Caribou","name":"Amazon Distribution Center #PHL4","area":"Unknown","country":"United States","year_opened":null,"state":"Pennsylvania","postal_code":"17015","owner":"Amazon","id":312,"street_address":"21 Roadway Drive","description":null}},{"geometry":{"type":"Point","coordinates":[-75.60,41.44]},"type":"Feature","id":"04b44848cd","clipped":true,"properties":{"city":"Scranton","name":"Amazon Distribution Center #VUBA","area":"Unknown","country":"United States","year_opened":null,"state":"Pennsylvania","postal_code":"18512","owner":"Amazon","id":313,"street_address":"1000 Keystone Industrial Park Road","description":null}},{"geometry":{"type":"Point","coordinates":[-75.80,41.33]},"type":"Feature","id":"e34a3d0f01","clipped":true,"properties":{"city":"Pittston","name":"Amazon Distribution Center #VUGA","area":"Unknown","country":"United States","year_opened":null,"state":"Pennsylvania","postal_code":"18643","owner":"Amazon","id":314,"street_address":"508 Delaware Avenue","description":null}},{"geometry":{"type":"Point","coordinates":[-77.23,40.19]},"type":"Feature","id":"0cd3224665","clipped":true,"properties":{"city":"Caribou","name":"Amazon Distribution Center #XUSC","area":"Unknown","country":"United States","year_opened":null,"state":"Pennsylvania","postal_code":"17013","owner":"Amazon","id":315,"street_address":"40 Logistics Drive","description":null}},{"geometry":{"type":"Point","coordinates":[-82.03,35.01]},"type":"Feature","id":"61ac516d39","clipped":true,"properties":{"city":"Spartanburg","name":"Amazon Distribution Center #GSP1","area":"Unknown","country":"United States","year_opened":null,"state":"South Carolina","postal_code":"29303","owner":"Amazon","id":316,"street_address":"402 John Dodd Road","description":null}},{"geometry":{"type":"Point","coordinates":[-81.05,33.91]},"type":"Feature","id":"cbe4825ec3","clipped":true,"properties":{"city":"Columbia","name":"Amazon Distribution Center ","area":"Unknown","country":"United States","year_opened":null,"state":"South Carolina","postal_code":"29172","owner":"Amazon","id":317,"street_address":"4400 12th Street Extension","description":null}},{"geometry":{"type":"Point","coordinates":[-81.05,33.91]},"type":"Feature","id":"cbe4825ec3","clipped":true,"properties":{"city":"Columbia","name":"Amazon Distribution Center #CAE1","area":"Unknown","country":"United States","year_opened":null,"state":"South Carolina","postal_code":"29172","owner":"Amazon","id":318,"street_address":"4400 12th Street Extension","description":null}},{"geometry":{"type":"Point","coordinates":[-85.14,35.07]},"type":"Feature","id":"ba530e4211","clipped":true,"properties":{"city":"Ogallala","name":"Amazon Distribution Center #CHA1","area":"Unknown","country":"United States","year_opened":null,"state":"Tennessee","postal_code":"37421","owner":"Amazon","id":319,"street_address":"7200 Discovery Drive","description":null}},{"geometry":{"type":"Point","coordinates":[-86.36,35.78]},"type":"Feature","id":"d80124e19a","clipped":true,"properties":{"city":"Murfreesboro","name":"Amazon Distribution Center #BNA3","area":"Unknown","country":"United States","year_opened":null,"state":"Tennessee","postal_code":"37127","owner":"Amazon","id":320,"street_address":"2020 Joe B Jackson Parkway","description":null}},{"geometry":{"type":"Point","coordinates":[-86.41,36.13]},"type":"Feature","id":"d1a08288df","clipped":true,"properties":{"city":"Lebanon","name":"Amazon Distribution Center #BNA1","area":"Unknown","country":"United States","year_opened":null,"state":"Tennessee","postal_code":"37090","owner":"Amazon","id":321,"street_address":"14840 Central Pike","description":null}},{"geometry":{"type":"Point","coordinates":[-84.81,35.28]},"type":"Feature","id":"054f26fb26","clipped":true,"properties":{"city":"Charleston","name":"Amazon Distribution Center #CHA2","area":"Unknown","country":"United States","year_opened":null,"state":"Tennessee","postal_code":"37310","owner":"Amazon","id":322,"street_address":"225 Infinity Drive","description":null}},{"geometry":{"type":"Point","coordinates":[-86.41,36.13]},"type":"Feature","id":"623465a697","clipped":true,"properties":{"city":"Mount Juliet","name":"Amazon Distribution Center #BNA2","area":"Unknown","country":"United States","year_opened":null,"state":"Tennessee","postal_code":"37122","owner":"Amazon","id":323,"street_address":"Duke Drive","description":null}},{"geometry":{"type":"Point","coordinates":[-77.44,37.36]},"type":"Feature","id":"e4f4398674","clipped":true,"properties":{"city":"Chester","name":"Amazon Distribution Center #RIC1","area":"Unknown","country":"United States","year_opened":null,"state":"Virginia","postal_code":"23831","owner":"Amazon","id":329,"street_address":"9827 Petersburg Street","description":null}},{"geometry":{"type":"Point","coordinates":[-77.33,37.35]},"type":"Feature","id":"5e38c24260","clipped":true,"properties":{"city":"Chester","name":"Amazon Distribution Center #RIC2","area":"Unknown","country":"United States","year_opened":null,"state":"Virginia","postal_code":"23836","owner":"Amazon","id":330,"street_address":"1901 Meadowville Technology Parkway","description":null}},{"geometry":{"type":"Point","coordinates":[-79.74,43.59]},"type":"Feature","id":"66ed6b13d1","clipped":true,"properties":{"city":"Mississauga","name":"Amazon Distribution Center #YYZ1","area":"Unknown","country":"Canada","year_opened":null,"state":"Ontario","postal_code":"L5N","owner":"Amazon","id":336,"street_address":"6363 Millcreek Drive","description":null}},{"geometry":{"type":"Point","coordinates":[-79.69,43.62]},"type":"Feature","id":"d2043f514a","clipped":true,"properties":{"city":"Mississauga","name":"Amazon Distribution Center #PRTO","area":"Unknown","country":"Canada","year_opened":null,"state":"Ontario","postal_code":"L5R","owner":"Amazon","id":337,"street_address":"6110 Cantay Road","description":null}},{"geometry":{"type":"Point","coordinates":[-87.03,33.32]},"type":"Feature","id":"bd5f3d3a2f","clipped":true,"properties":{"city":"McCall","name":"Home Depot Rapid Deployment Center","area":"Unknown","country":"United States","year_opened":null,"state":"Alabama","postal_code":"35111","owner":"Home Depot","id":338,"street_address":"6400 Jefferson Metro Parkway","description":""}},{"geometry":{"type":"Point","coordinates":[-72.74,41.86]},"type":"Feature","id":"49c1911c2f","clipped":true,"properties":{"city":null,"name":"Home Depot Distribution Center","area":"Unknown","country":"United States","year_opened":null,"state":"Connecticut","postal_code":"06002","owner":"Home Depot","id":354,"street_address":"170 Highland Park Drive","description":""}},{"geometry":{"type":"Point","coordinates":[-80.36,25.79]},"type":"Feature","id":"dd3f9f506b","clipped":true,"properties":{"city":"Miami","name":"Home Depot Distribution Center","area":"Unknown","country":"United States","year_opened":null,"state":"Florida","postal_code":"33172","owner":"Home Depot","id":355,"street_address":"10205 Northwest 19th Street","description":"Miami Export Center"}},{"geometry":{"type":"Point","coordinates":[-80.14,26.27]},"type":"Feature","id":"1e35a8e470","clipped":true,"properties":{"city":"Pompano Beach","name":"Home Depot Distribution Center","area":"Unknown","country":"United States","year_opened":null,"state":"Florida","postal_code":"33064","owner":"Home Depot","id":356,"street_address":"2900 North Andrews Avenue Extension","description":""}},{"geometry":{"type":"Point","coordinates":[-82.53,28.03]},"type":"Feature","id":"43881ed34d","clipped":true,"properties":{"city":"Tampa","name":"Home Depot Distribution Center","area":"Unknown","country":"United States","year_opened":null,"state":"Florida","postal_code":"33634","owner":"Home Depot","id":357,"street_address":"8423 Sunstate Street","description":""}},{"geometry":{"type":"Point","coordinates":[-81.79,30.38]},"type":"Feature","id":"39715007f3","clipped":true,"properties":{"city":"Jackson","name":"Home Depot Distribution Center","area":"Unknown","country":"United States","year_opened":null,"state":"Florida","postal_code":"32219","owner":"Home Depot","id":358,"street_address":"4831 Bulls Bay Highway","description":""}},{"geometry":{"type":"Point","coordinates":[-81.90,28.08]},"type":"Feature","id":"ed48b85690","clipped":true,"properties":{"city":"Lakeland","name":"Home Depot Distribution Center","area":"Unknown","country":"United States","year_opened":null,"state":"Florida","postal_code":"33805","owner":"Home Depot","id":359,"street_address":"3010 Saddle Creek Road","description":""}},{"geometry":{"type":"Point","coordinates":[-84.20,33.41]},"type":"Feature","id":"a58546bfe3","clipped":true,"properties":{"city":"McDonough","name":"Home Depot Distribution Center","area":"Unknown","country":"United States","year_opened":null,"state":"Georgia","postal_code":"30253","owner":"Home Depot","id":360,"street_address":"180 Westridge Parkway","description":""}},{"geometry":{"type":"Point","coordinates":[-84.16,33.38]},"type":"Feature","id":"51f7927bb2","clipped":true,"properties":{"city":"McDonough","name":"Home Depot Distribution Center","area":"Unknown","country":"United States","year_opened":null,"state":"Georgia","postal_code":"30253","owner":"Home Depot","id":361,"street_address":"190 Greenwood Industrial Parkway","description":""}},{"geometry":{"type":"Point","coordinates":[-83.19,30.66]},"type":"Feature","id":"fbc5f98bb4","clipped":true,"properties":{"city":null,"name":"Home Depot Rapid Deployment Center","area":"Unknown","country":"United States","year_opened":null,"state":"Georgia","postal_code":"31636","owner":"Home Depot","id":362,"street_address":"6201 Peterson Road","description":""}},{"geometry":{"type":"Point","coordinates":[-83.93,33.98]},"type":"Feature","id":"e58a7becd0","clipped":true,"properties":{"city":"Dacula","name":"Home Depot Distribution Center","area":"Unknown","country":"United States","year_opened":null,"state":"Georgia","postal_code":"30019","owner":"Home Depot","id":363,"street_address":"155 Alcovy Ind Boulevard","description":""}},{"geometry":{"type":"Point","coordinates":[-81.20,32.16]},"type":"Feature","id":"e98c078473","clipped":true,"properties":{"city":"Savannah","name":"Home Depot Distribution Center","area":"Unknown","country":"United States","year_opened":null,"state":"Georgia","postal_code":"31407","owner":"Home Depot","id":364,"street_address":"125 Crossroads Parkway","description":""}},{"geometry":{"type":"Point","coordinates":[-88.14,41.44]},"type":"Feature","id":"9cf4d44062","clipped":true,"properties":{"city":"Elwood","name":"Home Depot Distribution Center","area":"Unknown","country":"United States","year_opened":null,"state":"Illinois","postal_code":"60421","owner":"Home Depot","id":365,"street_address":"Logistics Drive","description":""}},{"geometry":{"type":"Point","coordinates":[-88.14,41.44]},"type":"Feature","id":"9604225ae4","clipped":true,"properties":{"city":"Joliet","name":"Home Depot Rapid Deployment Center","area":"Unknown","country":"United States","year_opened":null,"state":"Illinois","postal_code":"60436","owner":"Home Depot","id":366,"street_address":"2950 Centerpoint Way","description":""}},{"geometry":{"type":"Point","coordinates":[-88.35,41.74]},"type":"Feature","id":"7b01ecc095","clipped":true,"properties":{"city":"Montgomery","name":"Home Depot Distribution Center","area":"Unknown","country":"United States","year_opened":null,"state":"Illinois","postal_code":"60538","owner":"Home Depot","id":367,"street_address":"1000 Knell Road","description":""}},{"geometry":{"type":"Point","coordinates":[-86.36,39.69]},"type":"Feature","id":"70cabd9169","clipped":true,"properties":{"city":"Plainfield","name":"Home Depot Distribution Center","area":"Unknown","country":"United States","year_opened":null,"state":"Indiana","postal_code":"46168","owner":"Home Depot","id":368,"street_address":"1390 Perry Road","description":""}},{"geometry":{"type":"Point","coordinates":[-77.80,39.63]},"type":"Feature","id":"aae5a9ca0a","clipped":true,"properties":{"city":"Hagerstown","name":"Home Depot Distribution Center","area":"Unknown","country":"United States","year_opened":null,"state":"Maryland","postal_code":"21740","owner":"Home Depot","id":371,"street_address":"16500 Hunters Green Parkway","description":""}},{"geometry":{"type":"Point","coordinates":[-76.81,38.99]},"type":"Feature","id":"aa6abd2c38","clipped":true,"properties":{"city":"Alpine","name":"Home Depot Distribution Center","area":"Unknown","country":"United States","year_opened":null,"state":"Maryland","postal_code":"20769","owner":"Home Depot","id":372,"street_address":"7100 Holladay Tyler Road","description":""}},{"geometry":{"type":"Point","coordinates":[-71.17,42.20]},"type":"Feature","id":"8d7ddfc408","clipped":true,"properties":{"city":"Norwood","name":"Home Depot Distribution Center","area":"Unknown","country":"United States","year_opened":null,"state":"Massachusetts","postal_code":"02062","owner":"Home Depot","id":373,"street_address":"625 University Avenue","description":""}},{"geometry":{"type":"Point","coordinates":[-72.73,42.17]},"type":"Feature","id":"e6ca8576a2","clipped":true,"properties":{"city":"Westfield","name":"Home Depot Rapid Deployment Center","area":"Unknown","country":"United States","year_opened":null,"state":"Massachusetts","postal_code":"01085","owner":"Home Depot","id":374,"street_address":"Campanelli Drive","description":""}},{"geometry":{"type":"Point","coordinates":[-83.42,42.22]},"type":"Feature","id":"317a11f122","clipped":true,"properties":{"city":"Romulus","name":"Home Depot Distribution Center","area":"Unknown","country":"United States","year_opened":null,"state":"Michigan","postal_code":"48174","owner":"Home Depot","id":375,"street_address":"38481 Huron River Drive","description":""}},{"geometry":{"type":"Point","coordinates":[-74.51,40.31]},"type":"Feature","id":"be8fe84892","clipped":true,"properties":{"city":"Cranbury","name":"Home Depot Distribution Center","area":"Unknown","country":"United States","year_opened":null,"state":"New Jersey","postal_code":"08512","owner":"Home Depot","id":378,"street_address":"61 North Station Road","description":""}},{"geometry":{"type":"Point","coordinates":[-74.45,40.39]},"type":"Feature","id":"9aaa38b8ed","clipped":true,"properties":{"city":"Brunswick","name":"Home Depot Distribution Center","area":"Unknown","country":"United States","year_opened":null,"state":"New Jersey","postal_code":"08816","owner":"Home Depot","id":379,"street_address":"130 Interstate Boulevard","description":""}},{"geometry":{"type":"Point","coordinates":[-74.48,40.37]},"type":"Feature","id":"7226a9837a","clipped":true,"properties":{"city":"Dayton","name":"Home Depot Distribution Center","area":"Unknown","country":"United States","year_opened":null,"state":"New Jersey","postal_code":"08810","owner":"Home Depot","id":380,"street_address":"130 Docks Corner Road","description":""}},{"geometry":{"type":"Point","coordinates":[-75.39,39.78]},"type":"Feature","id":"bc9740ae9b","clipped":true,"properties":{"city":"Swedesboro","name":"Home Depot Distribution Center","area":"Unknown","country":"United States","year_opened":null,"state":"New Jersey","postal_code":"08085","owner":"Home Depot","id":381,"street_address":"2359 Center Square Road","description":""}},{"geometry":{"type":"Point","coordinates":[-74.24,41.50]},"type":"Feature","id":"5a15299c45","clipped":true,"properties":{"city":"Montgomery","name":"Home Depot Distribution Center","area":"Unknown","country":"United States","year_opened":null,"state":"New York","postal_code":"12549","owner":"Home Depot","id":382,"street_address":"601 Neelytown Road","description":""}},{"geometry":{"type":"Point","coordinates":[-80.88,35.28]},"type":"Feature","id":"1550fa1551","clipped":true,"properties":{"city":"Charlotte","name":"Home Depot Distribution Center","area":"Unknown","country":"United States","year_opened":null,"state":"North Carolina","postal_code":"28216","owner":"Home Depot","id":383,"street_address":"501 Black Satchel Drive","description":""}},{"geometry":{"type":"Point","coordinates":[-81.47,41.38]},"type":"Feature","id":"b5d5fe423c","clipped":true,"properties":{"city":"Solon","name":"Home Depot Distribution Center","area":"Unknown","country":"United States","year_opened":null,"state":"Ohio","postal_code":"44139","owner":"Home Depot","id":384,"street_address":"30301 Carter Street","description":""}},{"geometry":{"type":"Point","coordinates":[-83.66,41.14]},"type":"Feature","id":"f008c5bdf4","clipped":true,"properties":{"city":"Van Buren","name":"Home Depot Rapid Deployment Center","area":"Unknown","country":"United States","year_opened":null,"state":"Ohio","postal_code":"45889","owner":"Home Depot","id":385,"street_address":"1980 Township Road 14","description":""}},{"geometry":{"type":"Point","coordinates":[-84.32,39.43]},"type":"Feature","id":"5a238e562e","clipped":true,"properties":{"city":"Monroe","name":"Home Depot Rapid Deployment Center","area":"Unknown","country":"United States","year_opened":null,"state":"Ohio","postal_code":"45050","owner":"Home Depot","id":386,"street_address":"500 Gateway Boulevard","description":""}},{"geometry":{"type":"Point","coordinates":[-75.76,41.32]},"type":"Feature","id":"34feae274d","clipped":true,"properties":{"city":"Pittston","name":"Home Depot Rapid Deployment Center","area":"Unknown","country":"United States","year_opened":null,"state":"Pennsylvania","postal_code":"18643","owner":"Home Depot","id":388,"street_address":"300 Enterprise Way","description":""}},{"geometry":{"type":"Point","coordinates":[-75.63,40.55]},"type":"Feature","id":"8aa9ef4b03","clipped":true,"properties":{"city":"Breinigsville","name":"Home Depot Rapid Deployment Center","area":"Unknown","country":"United States","year_opened":null,"state":"Pennsylvania","postal_code":"18031","owner":"Home Depot","id":389,"street_address":"Willard Drive","description":""}},{"geometry":{"type":"Point","coordinates":[-75.65,40.57]},"type":"Feature","id":"09bf1c06e7","clipped":true,"properties":{"city":"Breinigsville","name":"Home Depot Distribution Center","area":"Unknown","country":"United States","year_opened":null,"state":"Pennsylvania","postal_code":"18031","owner":"Home Depot","id":390,"street_address":"861 Nestle Way","description":""}},{"geometry":{"type":"Point","coordinates":[-81.07,33.91]},"type":"Feature","id":"78d0e082ae","clipped":true,"properties":{"city":"Columbia","name":"Home Depot Rapid Deployment Center","area":"Unknown","country":"United States","year_opened":null,"state":"South Carolina","postal_code":"29172","owner":"Home Depot","id":391,"street_address":"420 Foster Brothers Drive","description":""}},{"geometry":{"type":"Point","coordinates":[-87.01,35.67]},"type":"Feature","id":"b39c626557","clipped":true,"properties":{"city":"Columbia","name":"Home Depot Distribution Center","area":"Unknown","country":"United States","year_opened":null,"state":"Tennessee","postal_code":"38401","owner":"Home Depot","id":392,"street_address":"1701 North Claton Drive","description":""}},{"geometry":{"type":"Point","coordinates":[-78.14,39.20]},"type":"Feature","id":"e1a0b93cea","clipped":true,"properties":{"city":"Estherville","name":"Home Depot Rapid Deployment Center","area":"Unknown","country":"United States","year_opened":null,"state":"Virginia","postal_code":"22603","owner":"Home Depot","id":402,"street_address":"480 Park Center Drive","description":""}},{"geometry":{"type":"Point","coordinates":[-78.15,39.08]},"type":"Feature","id":"6d73e15ca6","clipped":true,"properties":{"city":"Chester","name":"Home Depot Distribution Center","area":"Unknown","country":"United States","year_opened":null,"state":"Virginia","postal_code":"22602","owner":"Home Depot","id":403,"street_address":"Maranto Manor Drive","description":""}},{"geometry":{"type":"Point","coordinates":[-76.06,39.56]},"type":"Feature","id":"8bd0a56afd","clipped":true,"properties":{"city":"Perry","name":"IKEA DC","area":"Unknown","country":"United States","year_opened":null,"state":"Maryland","postal_code":"21903","owner":"Ikea","id":409,"street_address":"100 Ikea Road","description":null}},{"geometry":{"type":"Point","coordinates":[-74.85,40.01]},"type":"Feature","id":"c632630ae9","clipped":true,"properties":{"city":"Estherville","name":"IKEA DC","area":"Unknown","country":"United States","year_opened":null,"state":"New Jersey","postal_code":"08060","owner":"Ikea","id":410,"street_address":"100 Ikea Drive","description":null}},{"geometry":{"type":"Point","coordinates":[-81.17,32.18]},"type":"Feature","id":"c003846252","clipped":true,"properties":{"city":"Port Wentworth","name":"IKEA Savannah DC","area":"Unknown","country":"United States","year_opened":null,"state":"Georgia","postal_code":"31407","owner":"Ikea","id":411,"street_address":"202 Little Hearst Parkway","description":null}},{"geometry":{"type":"Point","coordinates":[-73.42,45.46]},"type":"Feature","id":"e80b7003c8","clipped":true,"properties":{"city":"Brossard","name":"IKEA DC","area":"Unknown","country":"Canada","year_opened":null,"state":"Qu\u00e9bec","postal_code":"J4Z","owner":"Ikea","id":412,"street_address":"5405 Place de la Couronne","description":null}}]}