{"type":"FeatureCollection","features":[{"geometry":{"type":"Point","coordinates":[-86.85,34.14]},"type":"Feature","id":"c468e052f9","clipped":true,"properties":{"city":"Cullman","name":"Walmart Distribution Center","area":"1,200,000","country":"United States","year_opened":1983.00,"state":"Alabama","postal_code":"35055","owner":"Walmart","id":1,"street_address":"2200 7th Avenue Southwest","description":"Originally constructed to 900,000 sq ft and expanded to 1.2M sq ft in 1988. 11 miles of conveyors."}},{"geometry":{"type":"Point","coordinates":[-94.26,36.32]},"type":"Feature","id":"b6d09ecf54","clipped":true,"properties":{"city":"Benton","name":"Walmart Distribution Center","area":"1,200,000","country":"United States","year_opened":null,"state":"Arkansas","postal_code":"72712","owner":"Walmart","id":2,"street_address":"5841 Southwest Regional Airport Boulevard","description":"12 miles of conveyors."}},{"geometry":{"type":"Point","coordinates":[-91.73,35.22]},"type":"Feature","id":"6202649478","clipped":true,"properties":{"city":"Searcy","name":"Walmart Distribution Center","area":"1,100,000","country":"United States","year_opened":1990.00,"state":"Arkansas","postal_code":"72143","owner":"Walmart","id":3,"street_address":"405 East Booth Road","description":null}},{"geometry":{"type":"Point","coordinates":[-112.56,33.39]},"type":"Feature","id":"70c24fd417","clipped":true,"properties":{"city":"Buckeye","name":"Walmart Distribution Center","area":"1,550,000","country":"United States","year_opened":1993.00,"state":"Arizona","postal_code":"85326","owner":"Walmart","id":4,"street_address":"23701 West Southern Avenue","description":"Originally constructed to 1.2 M sq ft, this facility was expanded by 352,000 sq ft in 1999 to add a Sam's cross dock facility on the same site. This is a free trade zone (FTZ) facility that can process import merchandise."}},{"geometry":{"type":"Point","coordinates":[-117.20,34.60]},"type":"Feature","id":"8fd28205d1","clipped":true,"properties":{"city":"Apple Valley","name":"Walmart Distribution Center","area":"1,340,000","country":"United States","year_opened":2004.00,"state":"California","postal_code":"92307","owner":"Walmart","id":5,"street_address":"21101 Johnson Road","description":null}},{"geometry":{"type":"Point","coordinates":[-119.02,36.05]},"type":"Feature","id":"8927c147b2","clipped":true,"properties":{"city":"Porterville","name":"Walmart Distribution Center","area":"1,200,000","country":"United States","year_opened":1991.00,"state":"California","postal_code":"93257","owner":"Walmart","id":6,"street_address":"1300 South F Street","description":null}},{"geometry":{"type":"Point","coordinates":[-122.19,40.11]},"type":"Feature","id":"1b3686f3cc","clipped":true,"properties":{"city":"Red Bluff","name":"Walmart Distribution Center","area":"1,170,000","country":"United States","year_opened":1994.00,"state":"California","postal_code":"96080","owner":"Walmart","id":7,"street_address":"10815 State Highway 99w","description":"11 Miles of conveyor."}},{"geometry":{"type":"Point","coordinates":[-104.97,40.43]},"type":"Feature","id":"f2463b9cee","clipped":true,"properties":{"city":"Loveland","name":"Walmart Distribution Center","area":"1,078,500","country":"United States","year_opened":1990.00,"state":"Colorado","postal_code":"80538","owner":"Walmart","id":8,"street_address":"7500 East Crossroads Boulevard","description":null}},{"geometry":{"type":"Point","coordinates":[-75.62,39.29]},"type":"Feature","id":"a2f6cd179e","clipped":true,"properties":{"city":"Smyrna","name":"Walmart Distribution Center","area":"1,200,000","country":"United States","year_opened":2004.00,"state":"Delaware","postal_code":"19977","owner":"Walmart","id":9,"street_address":"4860 Wheatleys Pond Road","description":"General Merchandise RDC."}},{"geometry":{"type":"Point","coordinates":[-82.47,29.90]},"type":"Feature","id":"8051860be9","clipped":true,"properties":{"city":"Alachua","name":"Walmart Distribution Center","area":"1,200,000","country":"United States","year_opened":2006.00,"state":"Florida","postal_code":"32615","owner":"Walmart","id":10,"street_address":"18815 Northwest 115th Terrace","description":"General Merchandise RDC built for $55M."}},{"geometry":{"type":"Point","coordinates":[-82.22,28.50]},"type":"Feature","id":"e7886a4781","clipped":true,"properties":{"city":"Brooksville","name":"Walmart Distribution Center","area":"1,600,000","country":"United States","year_opened":1992.00,"state":"Florida","postal_code":"34602","owner":"Walmart","id":11,"street_address":"5100 Kettering Road","description":"Originally built to 1.1 Million sq ft and later expanded in 1996 and 1999."}},{"geometry":{"type":"Point","coordinates":[-80.39,27.39]},"type":"Feature","id":"03a502b110","clipped":true,"properties":{"city":"Fort Pierce","name":"Walmart Distribution Center","area":"1,200,000","country":"United States","year_opened":2004.00,"state":"Florida","postal_code":"34981","owner":"Walmart","id":12,"street_address":"4001 South Jenkins Road","description":null}},{"geometry":{"type":"Point","coordinates":[-82.87,31.50]},"type":"Feature","id":"d0279121d7","clipped":true,"properties":{"city":"Douglas","name":"Walmart Distribution Center","area":"994,000","country":"United States","year_opened":1986.00,"state":"Georgia","postal_code":"31533","owner":"Walmart","id":13,"street_address":"690 Highway 206","description":"Walmart's 8th distribution center was originally built to 700,000 sq ft."}},{"geometry":{"type":"Point","coordinates":[-84.96,33.03]},"type":"Feature","id":"3719c331de","clipped":true,"properties":{"city":null,"name":"Walmart Distribution Center","area":"1,130,000","country":"United States","year_opened":2000.00,"state":"Georgia","postal_code":"30241","owner":"Walmart","id":14,"street_address":"385 Callaway Church Road","description":"General Merchandise RDC built for $55 Million."}},{"geometry":{"type":"Point","coordinates":[-91.53,40.97]},"type":"Feature","id":"0834e2c470","clipped":true,"properties":{"city":"Mount Pleasant","name":"Walmart Distribution Center","area":"1,244,000","country":"United States","year_opened":1985.00,"state":"Iowa","postal_code":"52641","owner":"Walmart","id":15,"street_address":"1100 North Iris Street","description":"Walmart's 8th distribution center was originally built to 650,000 sq ft and was later expanded in 1987."}},{"geometry":{"type":"Point","coordinates":[-89.22,41.35]},"type":"Feature","id":"72a0093e92","clipped":true,"properties":{"city":"Spring Valley","name":"Walmart Distribution Center","area":"1,200,000","country":"United States","year_opened":2001.00,"state":"Illinois","postal_code":"61362","owner":"Walmart","id":16,"street_address":"3100 Highway 89","description":null}},{"geometry":{"type":"Point","coordinates":[-85.85,38.96]},"type":"Feature","id":"271c920973","clipped":true,"properties":{"city":"Seymour","name":"Walmart Distribution Center","area":"1,100,000","country":"United States","year_opened":1990.00,"state":"Indiana","postal_code":"47274","owner":"Walmart","id":17,"street_address":"2100 East Tipton Street","description":null}},{"geometry":{"type":"Point","coordinates":[-95.21,38.62]},"type":"Feature","id":"137f08b7e5","clipped":true,"properties":{"city":"Ottawa","name":"Walmart Distribution Center","area":"1,200,000","country":"United States","year_opened":1995.00,"state":"Kansas","postal_code":"66067","owner":"Walmart","id":18,"street_address":"3270 Nevada Terrace","description":null}},{"geometry":{"type":"Point","coordinates":[-87.48,36.74]},"type":"Feature","id":"7a08a30dd2","clipped":true,"properties":{"city":"Hopkinsville","name":"Walmart Distribution Center","area":"1,200,000","country":"United States","year_opened":2002.00,"state":"Kentucky","postal_code":"42240","owner":"Walmart","id":19,"street_address":"690 Crenshaw Boulevard","description":"15 Miles of conveyor."}},{"geometry":{"type":"Point","coordinates":[-92.03,30.58]},"type":"Feature","id":"86d5e14972","clipped":true,"properties":{"city":"Opelousas","name":"Walmart Distribution Center","area":"1,200,000","country":"United States","year_opened":1999.00,"state":"Louisiana","postal_code":"70570","owner":"Walmart","id":20,"street_address":"3160 Highway 743","description":null}},{"geometry":{"type":"Point","coordinates":[-84.98,41.99]},"type":"Feature","id":"fc4b3ebd97","clipped":true,"properties":{"city":"Antlers","name":"Walmart Distribution Center","area":"1,100,000","country":"United States","year_opened":2001.00,"state":"Michigan","postal_code":"49036","owner":"Walmart","id":21,"street_address":"510 Jonesville Road","description":null}},{"geometry":{"type":"Point","coordinates":[-91.63,38.01]},"type":"Feature","id":"66c639433b","clipped":true,"properties":{"city":"Ames","name":"Walmart Distribution Center","area":"1,200,000","country":"United States","year_opened":2001.00,"state":"Missouri","postal_code":"65559","owner":"Walmart","id":22,"street_address":"Matlock Drive","description":null}},{"geometry":{"type":"Point","coordinates":[-90.42,31.60]},"type":"Feature","id":"3d47692d6b","clipped":true,"properties":{"city":"Brookhaven","name":"Walmart Distribution Center","area":"1,000,000","country":"United States","year_opened":1986.00,"state":"Mississippi","postal_code":"39601","owner":"Walmart","id":23,"street_address":"2210 Manufacturers Boulevard Northeast","description":"Walmart's 9th distribution center was originally built to 700,000 sq ft."}},{"geometry":{"type":"Point","coordinates":[-78.90,34.94]},"type":"Feature","id":"1cb4c5e68a","clipped":true,"properties":{"city":"Hope","name":"Walmart Distribution Center","area":"1,200,000","country":"United States","year_opened":1997.00,"state":"North Carolina","postal_code":"28348","owner":"Walmart","id":24,"street_address":"1057 Sand Hill Road","description":null}},{"geometry":{"type":"Point","coordinates":[-81.54,35.29]},"type":"Feature","id":"46df63b7d4","clipped":true,"properties":{"city":"Shelbyville","name":"Walmart Distribution Center","area":"1,200,000","country":"United States","year_opened":2002.00,"state":"North Carolina","postal_code":null,"owner":"Walmart","id":25,"street_address":"","description":null}},{"geometry":{"type":"Point","coordinates":[-71.16,43.03]},"type":"Feature","id":"406f2a5385","clipped":true,"properties":{"city":"Raymond","name":"Walmart Distribution Center","area":"1,100,000","country":"United States","year_opened":1996.00,"state":"New Hampshire","postal_code":"03077","owner":"Walmart","id":26,"street_address":"42 Freetown Road","description":null}},{"geometry":{"type":"Point","coordinates":[-75.31,43.17]},"type":"Feature","id":"5fa6efd142","clipped":true,"properties":{"city":null,"name":"Walmart Distribution Center","area":"1,200,000","country":"United States","year_opened":1994.00,"state":"New York","postal_code":"13403","owner":"Walmart","id":27,"street_address":"8827 Old River Road","description":null}},{"geometry":{"type":"Point","coordinates":[-83.10,39.90]},"type":"Feature","id":"4ded3d4354","clipped":true,"properties":{"city":"Grove City","name":"Walmart Distribution Center","area":"1,100,000","country":"United States","year_opened":1992.00,"state":"Ohio","postal_code":"43123","owner":"Walmart","id":28,"street_address":"3880 Southwest Boulevard","description":null}},{"geometry":{"type":"Point","coordinates":[-119.26,45.81]},"type":"Feature","id":"8928a3cc72","clipped":true,"properties":{"city":"Hermiston","name":"Walmart Distribution Center","area":"1,175,000","country":"United States","year_opened":1997.00,"state":"Oregon","postal_code":"97838","owner":"Walmart","id":29,"street_address":"2650 South Highway 395","description":null}},{"geometry":{"type":"Point","coordinates":[-75.41,41.16]},"type":"Feature","id":"cf3a619568","clipped":true,"properties":{"city":"Athens","name":"Walmart Distribution Center","area":"1,119,245","country":"United States","year_opened":2002.00,"state":"Pennsylvania","postal_code":"18346","owner":"Walmart","id":30,"street_address":"300 Veterans Drive","description":null}},{"geometry":{"type":"Point","coordinates":[-78.32,41.03]},"type":"Feature","id":"eb336edcce","clipped":true,"properties":{"city":"Woodland","name":"Walmart Distribution Center","area":"1,190,000","country":"United States","year_opened":1993.00,"state":"Pennsylvania","postal_code":"16881","owner":"Walmart","id":31,"street_address":"","description":null}},{"geometry":{"type":"Point","coordinates":[-83.01,36.17]},"type":"Feature","id":"f8bacdc3dc","clipped":true,"properties":{"city":"Midway","name":"Walmart Distribution Center","area":"1,200,000","country":"United States","year_opened":1997.00,"state":"Tennessee","postal_code":"37809","owner":"Walmart","id":32,"street_address":"","description":null}},{"geometry":{"type":"Point","coordinates":[-98.09,29.72]},"type":"Feature","id":"7402d07341","clipped":true,"properties":{"city":"New Braunfels","name":"Walmart Distribution Center","area":"1,204,000","country":"United States","year_opened":1988.00,"state":"Texas","postal_code":"78130","owner":"Walmart","id":33,"street_address":"North Ih 35","description":"Originally built to 984,000 sq ft in 1988 and later expanded in 1998. Also services as an electronics repairs DC."}},{"geometry":{"type":"Point","coordinates":[-95.63,31.76]},"type":"Feature","id":"571f23df02","clipped":true,"properties":{"city":"Palestine","name":"Walmart Distribution Center","area":"1,200,000","country":"United States","year_opened":1996.00,"state":"Texas","postal_code":null,"owner":"Walmart","id":34,"street_address":"","description":null}},{"geometry":{"type":"Point","coordinates":[-101.73,34.21]},"type":"Feature","id":"321b148ab8","clipped":true,"properties":{"city":"Plainview","name":"Walmart Distribution Center","area":"1,200,000","country":"United States","year_opened":1986.00,"state":"Texas","postal_code":"79072","owner":"Walmart","id":35,"street_address":"3100 Interstate 27","description":"Originally built to 700,000 sq ft and later expanded in 1998."}},{"geometry":{"type":"Point","coordinates":[-97.17,33.40]},"type":"Feature","id":"0d1bb8a513","clipped":true,"properties":{"city":"Sanger","name":"Walmart Distribution Center","area":"1,200,000","country":"United States","year_opened":2001.00,"state":"Texas","postal_code":"76266","owner":"Walmart","id":36,"street_address":"2120 North Stemmons Street","description":null}},{"geometry":{"type":"Point","coordinates":[-96.18,29.74]},"type":"Feature","id":"429bc551b1","clipped":true,"properties":{"city":"Sealy","name":"Walmart Distribution Center","area":"1,200,000","country":"United States","year_opened":2005.00,"state":"Texas","postal_code":"77474","owner":"Walmart","id":37,"street_address":"Brast Road","description":null}},{"geometry":{"type":"Point","coordinates":[-112.42,40.60]},"type":"Feature","id":"6a4900b89d","clipped":true,"properties":{"city":"Grants","name":"Walmart Distribution Center","area":"1,250,000","country":"United States","year_opened":2005.00,"state":"Utah","postal_code":"84029","owner":"Walmart","id":38,"street_address":"929 Route 138","description":null}},{"geometry":{"type":"Point","coordinates":[-78.94,38.36]},"type":"Feature","id":"59a4e366e3","clipped":true,"properties":{"city":null,"name":"Walmart Distribution Center","area":"1,200,000","country":"United States","year_opened":2005.00,"state":"Virginia","postal_code":"22841","owner":"Walmart","id":39,"street_address":"","description":null}},{"geometry":{"type":"Point","coordinates":[-77.54,37.19]},"type":"Feature","id":"4917722194","clipped":true,"properties":{"city":"Petersburg","name":"Walmart Distribution Center","area":"1,200,000","country":"United States","year_opened":1991.00,"state":"Virginia","postal_code":"23803","owner":"Walmart","id":40,"street_address":"21504 Cox Road","description":null}},{"geometry":{"type":"Point","coordinates":[-88.79,43.51]},"type":"Feature","id":"679ca0124f","clipped":true,"properties":{"city":"Beaver","name":"Walmart Distribution Center","area":"1,200,000","country":"United States","year_opened":2007.00,"state":"Wisconsin","postal_code":"53916","owner":"Walmart","id":41,"street_address":"115 Distribution Way","description":null}},{"geometry":{"type":"Point","coordinates":[-91.86,44.90]},"type":"Feature","id":"9f25af3db5","clipped":true,"properties":{"city":"Menomonie","name":"Walmart Distribution Center","area":"1,170,000","country":"United States","year_opened":1993.00,"state":"Wisconsin","postal_code":"54751","owner":"Walmart","id":42,"street_address":"6100 3M Drive","description":null}},{"geometry":{"type":"Point","coordinates":[-120.46,37.29]},"type":"Feature","id":"4640887fe0","clipped":true,"properties":{"city":"Merced","name":"Walmart Distribution Center","area":"1,200,000","country":"United States","year_opened":null,"state":"California","postal_code":"95341","owner":"Walmart","id":43,"street_address":"Childs Avenue","description":"Walmart first sought approval for this facility in 2002 and public resistance delayed the controversial approval which was finally received in Nov 2012."}},{"geometry":{"type":"Point","coordinates":[-91.70,35.24]},"type":"Feature","id":"827b1b4516","clipped":true,"properties":{"city":"Searcy","name":"Walmart Distribution Center","area":"682,700","country":"United States","year_opened":1978.00,"state":"Arkansas","postal_code":"72143","owner":"Walmart","id":44,"street_address":"3301 East Park Avenue","description":"Owned and Operated. Originally constructed as a 390,000 sq ft. Walmart's first DC outside of Bentonville and 4th DC. Expanded by 142,000 sq ft in 1981 and again in 1990 and then converted into a Sams Collectables DC in 1994."}},{"geometry":{"type":"Point","coordinates":[-121.75,38.68]},"type":"Feature","id":"f41eadb3fa","clipped":true,"properties":{"city":"Woodland","name":"Walmart Distribution Center","area":"65,200","country":"United States","year_opened":2004.00,"state":"California","postal_code":"95776","owner":"Walmart","id":46,"street_address":"1600 Tide Court","description":"Sam's Crossdock facility run by 3PL Exel Logistics."}},{"geometry":{"type":"Point","coordinates":[-117.63,34.05]},"type":"Feature","id":"7b8877de47","clipped":true,"properties":{"city":"Ontario","name":"Walmart Distribution Center","area":"60,000","country":"United States","year_opened":null,"state":"California","postal_code":"91761","owner":"Walmart","id":47,"street_address":"1000 South Cucamonga Avenue","description":"Sam's Crossdock facility run by 3PL Vitran Logistics Inc."}},{"geometry":{"type":"Point","coordinates":[-81.49,30.46]},"type":"Feature","id":"e09d71f318","clipped":true,"properties":{"city":"Jacksonville","name":"Walmart Distribution Center","area":"129,665","country":"United States","year_opened":2013.00,"state":"Florida","postal_code":"32226","owner":"Walmart","id":49,"street_address":"","description":null}},{"geometry":{"type":"Point","coordinates":[-81.90,28.08]},"type":"Feature","id":"3e48eac7fc","clipped":true,"properties":{"city":"Lakeland","name":"Walmart Distribution Center","area":"66,400","country":"United States","year_opened":1991.00,"state":"Florida","postal_code":"33801","owner":"Walmart","id":50,"street_address":"3010 Saddle Creek Road","description":"Sam's Crossdock facility run by 3PL SaddleCreek Logistics."}},{"geometry":{"type":"Point","coordinates":[-84.94,33.75]},"type":"Feature","id":"46c267588b","clipped":true,"properties":{"city":"Villa Rica","name":"Walmart Distribution Center","area":"60,000","country":"United States","year_opened":1995.00,"state":"Georgia","postal_code":"30180","owner":"Walmart","id":51,"street_address":"140 Fleet Drive","description":"Sam's Crossdock facility run by 3PL SaddleCreek Logistics."}},{"geometry":{"type":"Point","coordinates":[-87.75,41.44]},"type":"Feature","id":"cb4e010b02","clipped":true,"properties":{"city":"University Park","name":"Walmart Distribution Center","area":"49,200","country":"United States","year_opened":2005.00,"state":"Illinois","postal_code":"60484","owner":"Walmart","id":52,"street_address":"1325 South Central Avenue","description":"Sam's Crossdock facility run by 3PL Vitran Logistics."}},{"geometry":{"type":"Point","coordinates":[-85.78,39.81]},"type":"Feature","id":"4d2c0fb180","clipped":true,"properties":{"city":"Greenfield","name":"Walmart Distribution Center","area":"85,200","country":"United States","year_opened":null,"state":"Indiana","postal_code":"46140","owner":"Walmart","id":53,"street_address":"488 West Muskegon Drive","description":"Owned and Operated."}},{"geometry":{"type":"Point","coordinates":[-77.72,39.72]},"type":"Feature","id":"01b11a34fc","clipped":true,"properties":{"city":"Stow","name":"Walmart Distribution Center","area":"40,000","country":"United States","year_opened":1994.00,"state":"Maryland","postal_code":"21742","owner":"Walmart","id":54,"street_address":"14557 Industry Drive","description":"Sam's Crossdock facility run by Kane is Able."}},{"geometry":{"type":"Point","coordinates":[-83.20,42.21]},"type":"Feature","id":"bc97e27ebe","clipped":true,"properties":{"city":"Antlers","name":"Walmart Distribution Center","area":"60,000","country":"United States","year_opened":1992.00,"state":"Michigan","postal_code":"48195","owner":"Walmart","id":55,"street_address":"Dix Toledo Road","description":"Sam's Crossdock facility run by ASW Global, LLC."}},{"geometry":{"type":"Point","coordinates":[-93.36,44.81]},"type":"Feature","id":"4b4d8baeb9","clipped":true,"properties":{"city":"Bloomington","name":"Walmart Distribution Center","area":"180,300","country":"United States","year_opened":1995.00,"state":"Minnesota","postal_code":"55438","owner":"Walmart","id":56,"street_address":"6301 West Old Shakopee Road","description":"Owned and Operated."}},{"geometry":{"type":"Point","coordinates":[-94.68,39.09]},"type":"Feature","id":"625ab0d938","clipped":true,"properties":{"city":"Kansas City","name":"Walmart Distribution Center","area":"81,080","country":"United States","year_opened":1988.00,"state":"Kansas","postal_code":"66106","owner":"Walmart","id":57,"street_address":"233 South 42nd Street","description":"Sam's Crossdock facility formerly run by Wagner Industries up to May 2012."}},{"geometry":{"type":"Point","coordinates":[-89.27,31.27]},"type":"Feature","id":"1479de6014","clipped":true,"properties":{"city":"Hattiesburg","name":"Walmart Distribution Center","area":"60,000","country":"United States","year_opened":2008.00,"state":"Mississippi","postal_code":"39401","owner":"Walmart","id":58,"street_address":"185 J M Tatum Industrial Drive","description":"Sam's Crossdock facility run by 3PL SaddleCreek Logistics."}},{"geometry":{"type":"Point","coordinates":[-80.93,35.13]},"type":"Feature","id":"cef724a361","clipped":true,"properties":{"city":"Charlotte","name":"Walmart Distribution Center","area":"63,400","country":"United States","year_opened":1991.00,"state":"North Carolina","postal_code":"28273","owner":"Walmart","id":59,"street_address":"1911 Continental Boulevard","description":"Sam's Crossdock facility run by 3PL Distribution Technology Inc."}},{"geometry":{"type":"Point","coordinates":[-71.45,43.08]},"type":"Feature","id":"6ea41f9ba9","clipped":true,"properties":{"city":"Hooksett","name":"Walmart Distribution Center","area":"26,200","country":"United States","year_opened":2005.00,"state":"New Hampshire","postal_code":"03106","owner":"Walmart","id":60,"street_address":"","description":"Sam's Crossdock facility formerly run by PSI - Puget Sound International which went out of business in Sep, 2012."}},{"geometry":{"type":"Point","coordinates":[-81.46,40.91]},"type":"Feature","id":"94accd238b","clipped":true,"properties":{"city":"Canton","name":"Walmart Distribution Center","area":"75,000","country":"United States","year_opened":null,"state":"Ohio","postal_code":"44720","owner":"Walmart","id":61,"street_address":"2150 International Parkway","description":"Sam's Crossdock facility run by ASW Global, LLC."}},{"geometry":{"type":"Point","coordinates":[-75.70,41.40]},"type":"Feature","id":"dc86469b73","clipped":true,"properties":{"city":"Taylor","name":"Walmart Distribution Center","area":"70,000","country":"United States","year_opened":1990.00,"state":"Pennsylvania","postal_code":"18517","owner":"Walmart","id":62,"street_address":"26 Stauffer Industrial Park","description":"Sam's Crossdock facility run by Kane is Able."}},{"geometry":{"type":"Point","coordinates":[-96.84,32.62]},"type":"Feature","id":"8b63a12a97","clipped":true,"properties":{"city":"DeSoto","name":"Walmart Distribution Center","area":"92,800","country":"United States","year_opened":null,"state":"Texas","postal_code":"75115","owner":"Walmart","id":64,"street_address":"830 East Centre Park Boulevard","description":"Owned and Operated."}},{"geometry":{"type":"Point","coordinates":[-94.93,30.10]},"type":"Feature","id":"0160ff092f","clipped":true,"properties":{"city":"Dayton","name":"Walmart Distribution Center","area":"100,000","country":"United States","year_opened":1995.00,"state":"Texas","postal_code":"77535","owner":"Walmart","id":65,"street_address":"451 Farm to Market 686","description":"Owned and Operated."}},{"geometry":{"type":"Point","coordinates":[-122.39,47.25]},"type":"Feature","id":"28092188f4","clipped":true,"properties":{"city":"Tacoma","name":"Walmart Distribution Center","area":"103,200","country":"United States","year_opened":null,"state":"Washington","postal_code":"98421","owner":"Walmart","id":66,"street_address":"2810 North Marshall Street","description":"Sam's Crossdock facility formerly run by PSI - Puget Sound International which went out of business in Sep, 2012. Vitran Logistics is now the 3PL operator."}},{"geometry":{"type":"Point","coordinates":[-99.72,27.72]},"type":"Feature","id":"e7d5a91856","clipped":true,"properties":{"city":"Laredo","name":"Walmart Distribution Center","area":"191,700","country":"United States","year_opened":1992.00,"state":"Texas","postal_code":"78045","owner":"Walmart","id":67,"street_address":"Black Diamond Circle","description":"Export distribution center to distribute export merchandise for Walmart Mexico."}},{"geometry":{"type":"Point","coordinates":[-86.87,40.05]},"type":"Feature","id":"5ee2e182fb","clipped":true,"properties":{"city":"Crawfordsville","name":"Walmart Distribution Center","area":"31,400","country":"United States","year_opened":1993.00,"state":"Indiana","postal_code":"47933","owner":"Walmart","id":68,"street_address":"801 Corda Boulevard","description":"Optical Lab / Plant."}},{"geometry":{"type":"Point","coordinates":[-94.19,36.05]},"type":"Feature","id":"d12064f9f4","clipped":true,"properties":{"city":"Fayetteville","name":"Walmart Distribution Center","area":"64,500","country":"United States","year_opened":1987.00,"state":"Arkansas","postal_code":"72701","owner":"Walmart","id":69,"street_address":"2314 West 6th Street","description":"Optical Lab / Plant."}},{"geometry":{"type":"Point","coordinates":[-96.89,32.82]},"type":"Feature","id":"9435a8fcc2","clipped":true,"properties":{"city":"Dallas","name":"Walmart Distribution Center","area":"38,918","country":"United States","year_opened":2003.00,"state":"Texas","postal_code":"75247","owner":"Walmart","id":70,"street_address":"9029 Directors Row","description":"Optical Lab / Plant."}},{"geometry":{"type":"Point","coordinates":[-94.13,36.35]},"type":"Feature","id":"ee304b06fc","clipped":true,"properties":{"city":"Rogers","name":"Walmart Distribution Center","area":"150,000","country":"United States","year_opened":1976.00,"state":"Arkansas","postal_code":"72756","owner":"Walmart","id":71,"street_address":"2252 North 8th Street","description":"Started as a Redistribution DC in 1976 and converted into a VAWD accredited Pharmacy Distribution Center."}},{"geometry":{"type":"Point","coordinates":[-94.18,36.36]},"type":"Feature","id":"7ef5a92e9c","clipped":true,"properties":{"city":"Benton","name":"Walmart Distribution Center","area":"40,000","country":"United States","year_opened":2001.00,"state":"Arkansas","postal_code":"72712","owner":"Walmart","id":72,"street_address":"1201 Moberly Lane","description":"Pharmacy Distribution Center. Pharmacy Returns DC."}},{"geometry":{"type":"Point","coordinates":[-119.65,36.28]},"type":"Feature","id":"53d857de83","clipped":true,"properties":{"city":"Hanford","name":"Walmart Distribution Center","area":"70,900","country":"United States","year_opened":1994.00,"state":"California","postal_code":"93230","owner":"Walmart","id":73,"street_address":"13231 11th Avenue","description":"Pharmacy Distribution Center."}},{"geometry":{"type":"Point","coordinates":[-83.51,31.45]},"type":"Feature","id":"df5b0739d4","clipped":true,"properties":{"city":"Tifton","name":"Walmart Distribution Center","area":"86,500","country":"United States","year_opened":1988.00,"state":"Georgia","postal_code":null,"owner":"Walmart","id":74,"street_address":"","description":"Pharmacy Distribution Center."}},{"geometry":{"type":"Point","coordinates":[-77.81,39.62]},"type":"Feature","id":"e6e21ab739","clipped":true,"properties":{"city":"Williamsport","name":"Walmart Distribution Center","area":"66,300","country":"United States","year_opened":1997.00,"state":"Maryland","postal_code":"21795","owner":"Walmart","id":75,"street_address":"11121 Elliott Place","description":"Converted a Photo lab into a Pharmaceutical Distribution Center."}},{"geometry":{"type":"Point","coordinates":[-94.19,36.36]},"type":"Feature","id":"70747087b8","clipped":true,"properties":{"city":"Benton","name":"Walmart Distribution Center","area":"390,000","country":"United States","year_opened":1997.00,"state":"Arkansas","postal_code":"72712","owner":"Walmart","id":76,"street_address":"1108 Southeast 10th Street","description":"Print Solutions Distribution Center which is an In-house plant dedicated to printing materials such as signage, training manuals, labels, guides, forms, etc. Originally constructed to 198,000 sf and expanded in 2007."}},{"geometry":{"type":"Point","coordinates":[-94.20,36.37]},"type":"Feature","id":"f84a02f809","clipped":true,"properties":{"city":"Benton","name":"Walmart Distribution Center","area":"225,000","country":"United States","year_opened":1975.00,"state":"Arkansas","postal_code":"72712","owner":"Walmart","id":77,"street_address":"1102 Southeast 5th Street","description":"Originally constructed to 150,000 sq ft to serve as a redistribution center. Later expanded in 1981. This was the 2nd DC in the network. Currently serves as a Walmart Return Center with 400 associates."}},{"geometry":{"type":"Point","coordinates":[-94.19,36.36]},"type":"Feature","id":"6f65e7f659","clipped":true,"properties":{"city":"Benton","name":"Walmart Distribution Center","area":"675,000","country":"United States","year_opened":null,"state":"Arkansas","postal_code":"72712","owner":"Walmart","id":78,"street_address":"1901 Southeast 10th Street","description":"Walmart & Sams Club Return Distribution Center."}},{"geometry":{"type":"Point","coordinates":[-94.22,36.38]},"type":"Feature","id":"a6631e7f6d","clipped":true,"properties":{"city":"Benton","name":"Walmart Distribution Center","area":"72,000","country":"United States","year_opened":2005.00,"state":"Arkansas","postal_code":"72712","owner":"Walmart","id":79,"street_address":"601 North Walton Boulevard","description":"Walmart Reclamation Center."}},{"geometry":{"type":"Point","coordinates":[-86.03,39.82]},"type":"Feature","id":"62cf66c766","clipped":true,"properties":{"city":"Indianapolis","name":"Walmart Distribution Center","area":"266,400","country":"United States","year_opened":null,"state":"Indiana","postal_code":"46226","owner":"Walmart","id":80,"street_address":"3333 North Franklin Road","description":"Outsourced to 3PL Exel Logistics. Walmart Return Distribution Center."}},{"geometry":{"type":"Point","coordinates":[-115.12,36.24]},"type":"Feature","id":"449525a633","clipped":true,"properties":{"city":"Las Vegas","name":"Walmart Distribution Center","area":"106,700","country":"United States","year_opened":null,"state":"Nevada","postal_code":"89030","owner":"Walmart","id":81,"street_address":"1900 Aerojet Way","description":"Outsourced to 3PL Exel Logistics. Walmart Return Distribution Center."}},{"geometry":{"type":"Point","coordinates":[-74.39,42.99]},"type":"Feature","id":"010df02519","clipped":true,"properties":{"city":"Johnstown","name":"Walmart Distribution Center","area":"207,600","country":"United States","year_opened":1996.00,"state":"New York","postal_code":"12095","owner":"Walmart","id":82,"street_address":"161 Enterprise Road","description":"Outsourced to 3PL Power Logistics of Exel North American Logistics, Inc. Walmart Return Distribution Center."}},{"geometry":{"type":"Point","coordinates":[-82.04,35.00]},"type":"Feature","id":"2d181d0c01","clipped":true,"properties":{"city":"Spartanburg","name":"Walmart Distribution Center","area":"266,400","country":"United States","year_opened":2009.00,"state":"South Carolina","postal_code":"29303","owner":"Walmart","id":83,"street_address":"5795 North Blackstock Road","description":"Outsourced to 3PL Exel Logistics. Walmart Return Distribution Center that replaced a Return center in Macon GA which was closed Sep 2009."}},{"geometry":{"type":"Point","coordinates":[-97.17,31.49]},"type":"Feature","id":"7e20b7ad08","clipped":true,"properties":{"city":"Oak Harbor","name":"Walmart Distribution Center","area":"220,000","country":"United States","year_opened":2004.00,"state":"Texas","postal_code":"76712","owner":"Walmart","id":84,"street_address":"2301 Corporation Parkway","description":"Walmart Return Distribution Center."}},{"geometry":{"type":"Point","coordinates":[-94.12,36.33]},"type":"Feature","id":"c313036d7d","clipped":true,"properties":{"city":"Rogers","name":"Walmart Distribution Center","area":"Unknown","country":"United States","year_opened":2013.00,"state":"Arkansas","postal_code":null,"owner":"Walmart","id":85,"street_address":"","description":"Walmart Refurb Center. Refurb & certify smartphones, tablets and computer returns."}},{"geometry":{"type":"Point","coordinates":[-94.97,35.92]},"type":"Feature","id":"702a8fbad0","clipped":true,"properties":{"city":"Tahlequah","name":"Walmart Distribution Center","area":"Unknown","country":"United States","year_opened":2013.00,"state":"Oklahoma","postal_code":"74464","owner":"Walmart","id":86,"street_address":"","description":"Walmart Refurb Center run by the Cherokee Nation. Refurb & certify smartphones, tablets and computer returns."}},{"geometry":{"type":"Point","coordinates":[-84.15,33.45]},"type":"Feature","id":"2a5eef2cb5","clipped":true,"properties":{"city":"McDonough","name":"Walmart Distribution Center","area":"357,120","country":"United States","year_opened":2001.00,"state":"Georgia","postal_code":null,"owner":"Walmart","id":87,"street_address":"","description":"Outsourced to 3PL Exel Logistics. Tire Distribution Center that ships tires to over 700 Walmart and Sam's Club stores in the Southeast."}},{"geometry":{"type":"Point","coordinates":[-96.76,32.65]},"type":"Feature","id":"d4d9d34eda","clipped":true,"properties":{"city":"Dallas","name":"Walmart Distribution Center","area":"420,000","country":"United States","year_opened":2002.00,"state":"Texas","postal_code":"75241","owner":"Walmart","id":88,"street_address":"4130 Port Boulevard","description":"Outsourced to 3PL Exel Logistics. Tire Distribution Center."}},{"geometry":{"type":"Point","coordinates":[-66.12,18.40]},"type":"Feature","id":"43deddaca4","clipped":true,"properties":{"city":"Guaynabo","name":"Walmart Distribution Center","area":"355,000","country":"Puerto Rico","year_opened":null,"state":"Guaynabo Municipio","postal_code":"00968","owner":"Walmart","id":89,"street_address":"","description":"RDC to service GM and Food to Puerto Rico for all Walmart and Sam's Club stores."}},{"geometry":{"type":"Point","coordinates":[-85.12,33.64]},"type":"Feature","id":"544ac12e4d","clipped":true,"properties":{"city":"Carrollton","name":"Walmart Distribution Center","area":"1,000,000","country":"United States","year_opened":2002.00,"state":"Georgia","postal_code":"30117","owner":"Walmart","id":90,"street_address":"3101 U.S. 27","description":"Dedicated Walmart.com distribution center."}},{"geometry":{"type":"Point","coordinates":[-97.25,32.97]},"type":"Feature","id":"bf602db66b","clipped":true,"properties":{"city":"Fort Worth","name":"Walmart Distribution Center","area":"788,160","country":"United States","year_opened":2013.00,"state":"Texas","postal_code":"76177","owner":"Walmart","id":91,"street_address":"5300 Westport Parkway","description":"Dedicated Walmart.com distribution center. Outsourced to 3PL Ozburn-Hessey Logistics, LLC."}},{"geometry":{"type":"Point","coordinates":[-75.33,40.61]},"type":"Feature","id":"3690d1d4b1","clipped":true,"properties":{"city":"Bethlehem","name":"Walmart Distribution Center","area":"1,200,000","country":"United States","year_opened":null,"state":"Pennsylvania","postal_code":"18015","owner":"Walmart","id":92,"street_address":"2785 Commerce Center Boulevard","description":"Dedicated Walmart.com distribution center."}},{"geometry":{"type":"Point","coordinates":[-94.22,36.37]},"type":"Feature","id":"ea380c8ad4","clipped":true,"properties":{"city":"Benton","name":"Walmart Distribution Center","area":"236,800","country":"United States","year_opened":1970.00,"state":"Arkansas","postal_code":"72712","owner":"Walmart","id":93,"street_address":"702 Southwest 8th Street","description":"Walmart's first ever distribution center opened in 1970 as a General Merchandise & Fashion facility. Originally 60,000 sq ft; expanded to 124,800 in 1971; expanded again to 236,800 sq ft in 1972. Closed and converted into head office space in 1986."}},{"geometry":{"type":"Point","coordinates":[-117.55,34.02]},"type":"Feature","id":"8ef0aa023d","clipped":true,"properties":{"city":"Mira Loma","name":"Walmart Distribution Center","area":"397,630","country":"United States","year_opened":1999.00,"state":"California","postal_code":"91752","owner":"Walmart","id":94,"street_address":"12400 Riverside Drive","description":"Import Center that was vacated around or before 2009."}},{"geometry":{"type":"Point","coordinates":[-117.54,34.02]},"type":"Feature","id":"62ca71763e","clipped":true,"properties":{"city":"Mira Loma","name":"Walmart Distribution Center","area":"656,000","country":"United States","year_opened":2001.00,"state":"California","postal_code":"91752","owner":"Walmart","id":95,"street_address":"11850 Riverside Drive","description":"Import Center that was vacated around or before 2009."}},{"geometry":{"type":"Point","coordinates":[-117.38,34.01]},"type":"Feature","id":"1ca59f7c5f","clipped":true,"properties":{"city":"Riverside","name":"Walmart Distribution Center","area":"253,000","country":"United States","year_opened":2001.00,"state":"California","postal_code":"92509","owner":"Walmart","id":96,"street_address":"2356 Fleetwood Drive","description":"Castle & Cook Cold Storage facility."}},{"geometry":{"type":"Point","coordinates":[-81.20,32.16]},"type":"Feature","id":"c0b55f77a5","clipped":true,"properties":{"city":"Savanna","name":"Walmart Distribution Center","area":"800,000","country":"United States","year_opened":2001.00,"state":"Georgia","postal_code":"31407","owner":"Walmart","id":97,"street_address":"163 Portside Court","description":"Import Center that was closed in 2008 and consolidated into the Statesboro, GA facility."}},{"geometry":{"type":"Point","coordinates":[-79.91,32.91]},"type":"Feature","id":"bf018707fd","clipped":true,"properties":{"city":"Charleston","name":"Walmart Distribution Center","area":"560,000","country":"United States","year_opened":2002.00,"state":"South Carolina","postal_code":"29492","owner":"Walmart","id":98,"street_address":"1080 Charleston Regional Parkway","description":"Import Center constructed for Walmart in a FTZ Zone in 2001-2002 and closed in 2006."}},{"geometry":{"type":"Point","coordinates":[-82.94,39.84]},"type":"Feature","id":"5a33230e37","clipped":true,"properties":{"city":"Bourne","name":"Walmart Distribution Center","area":"414,000","country":"United States","year_opened":2001.00,"state":"Ohio","postal_code":"43137","owner":"Walmart","id":99,"street_address":"2525 Rohr Road","description":"Optical Lab closed in Mar 2009."}},{"geometry":{"type":"Point","coordinates":[-118.32,33.85]},"type":"Feature","id":"b7d39bb41f","clipped":true,"properties":{"city":"Torrance","name":"Walmart Distribution Center","area":"1,087,500","country":"United States","year_opened":1994.00,"state":"California","postal_code":"90501","owner":"Walmart","id":100,"street_address":"19688 Van Ness Avenue","description":"Import Center that was associated to the McLane's acquisition."}},{"geometry":{"type":"Point","coordinates":[-94.19,36.36]},"type":"Feature","id":"fc79d0c0f3","clipped":true,"properties":{"city":"Benton","name":"Walmart Distribution Center","area":"640,000","country":"United States","year_opened":1986.00,"state":"Arkansas","postal_code":"72712","owner":"Walmart","id":101,"street_address":"1110 Southeast 10th Street","description":"Walmart's 11th distribution center which also serves as a returns center, a jewelry distribution center, and a jewelry repair location for Sam's."}},{"geometry":{"type":"Point","coordinates":[-94.19,36.37]},"type":"Feature","id":"aff919eb33","clipped":true,"properties":{"city":"Benton","name":"Walmart Distribution Center","area":"705,600","country":"United States","year_opened":1980.00,"state":"Arkansas","postal_code":"72712","owner":"Walmart","id":102,"street_address":"2100 Southeast 5th Street","description":"Originally constructed to 390,000 sq ft and later expanded in 1981."}},{"geometry":{"type":"Point","coordinates":[-86.83,39.64]},"type":"Feature","id":"55bbba4907","clipped":true,"properties":{"city":"Greencastle","name":"Walmart Distribution Center","area":"1,515,000","country":"United States","year_opened":1991.00,"state":"Indiana","postal_code":"46135","owner":"Walmart","id":103,"street_address":"333 South 10th Street","description":"Originally constructed to 937,000 sq ft. Expanded twice since 1991. 15 miles of conveyor."}},{"geometry":{"type":"Point","coordinates":[-97.56,42.37]},"type":"Feature","id":"e5dd07d8d9","clipped":true,"properties":{"city":null,"name":"Walmart Distribution Center","area":"800,000","country":"United States","year_opened":1995.00,"state":null,"postal_code":null,"owner":"Walmart","id":104,"street_address":"U.S. 20","description":"Distributes Apparel and shoes."}},{"geometry":{"type":"Point","coordinates":[-82.00,34.55]},"type":"Feature","id":"b3d4147800","clipped":true,"properties":{"city":"Laurens","name":"Walmart Distribution Center","area":"1,630,860","country":"United States","year_opened":1988.00,"state":"South Carolina","postal_code":"29360","owner":"Walmart","id":105,"street_address":"1050 Vern Cora Road","description":"Originally constructed to 583,000 sq ft;. Expanded in 1992. Facility converted into a Fashion DC in 2002."}},{"geometry":{"type":"Point","coordinates":[-95.62,31.74]},"type":"Feature","id":"0919c2ca13","clipped":true,"properties":{"city":"Alpine","name":"Walmart Distribution Center","area":"893,700","country":"United States","year_opened":1981.00,"state":"Texas","postal_code":"75801","owner":"Walmart","id":106,"street_address":"201 Old Elkhart Road","description":"Walmart's 5th DC. was originally built to 510,000 sq ft. Expanded in 1986. Converted into a Fashion DC in May 1994."}},{"geometry":{"type":"Point","coordinates":[-113.43,37.16]},"type":"Feature","id":"bc6c569835","clipped":true,"properties":{"city":"Hurricane","name":"Walmart Distribution Center","area":"1,170,000","country":"United States","year_opened":1993.00,"state":"Utah","postal_code":"84737","owner":"Walmart","id":107,"street_address":"152 North Old Highway 91","description":null}},{"geometry":{"type":"Point","coordinates":[-79.64,39.21]},"type":"Feature","id":"429a2c8370","clipped":true,"properties":{"city":"Parsons","name":"Walmart Distribution Center","area":"Unknown","country":"United States","year_opened":null,"state":"West Virginia","postal_code":"26287","owner":"Walmart","id":108,"street_address":"","description":null}},{"geometry":{"type":"Point","coordinates":[-94.35,35.32]},"type":"Feature","id":"07a7029b5c","clipped":true,"properties":{"city":"Fort Smith","name":"Walmart Distribution Center","area":"236,100","country":"United States","year_opened":1990.00,"state":"Arkansas","postal_code":"72903","owner":"Walmart","id":109,"street_address":"8100 Zero Street","description":"Footwear distribution center."}},{"geometry":{"type":"Point","coordinates":[-85.82,31.72]},"type":"Feature","id":"7d161c105a","clipped":true,"properties":{"city":"Brundidge","name":"Walmart Distribution Center","area":"890,000","country":"United States","year_opened":2003.00,"state":"Alabama","postal_code":null,"owner":"Walmart","id":110,"street_address":"","description":"Swisslog automation in the Perishables complex."}},{"geometry":{"type":"Point","coordinates":[-85.32,32.70]},"type":"Feature","id":"9fa1ab463d","clipped":true,"properties":{"city":"Opelika","name":"Walmart Distribution Center","area":"880,000","country":"United States","year_opened":2000.00,"state":"Alabama","postal_code":"36801","owner":"Walmart","id":111,"street_address":"2701 Andrews Road","description":"Originally constructed to 450,000 sq ft."}},{"geometry":{"type":"Point","coordinates":[-93.53,35.43]},"type":"Feature","id":"29a20bbc8f","clipped":true,"properties":{"city":"Clarksville","name":"Walmart Distribution Center","area":"850,000","country":"United States","year_opened":1993.00,"state":"Arkansas","postal_code":"72830","owner":"Walmart","id":112,"street_address":"3300 Sterlin Hurley Ind Highway","description":"Originally a McLane's distribution center constructed to 750,000 sq ft."}},{"geometry":{"type":"Point","coordinates":[-111.77,32.87]},"type":"Feature","id":"852860ed1a","clipped":true,"properties":{"city":"Casa Grande","name":"Walmart Distribution Center","area":"875,100","country":"United States","year_opened":2003.00,"state":"Arizona","postal_code":"85122","owner":"Walmart","id":113,"street_address":"868 West Peters Road","description":null}},{"geometry":{"type":"Point","coordinates":[-81.95,27.04]},"type":"Feature","id":"a38dd26574","clipped":true,"properties":{"city":"Arcadia","name":"Walmart Distribution Center","area":"940,000","country":"United States","year_opened":2005.00,"state":"Florida","postal_code":"34269","owner":"Walmart","id":114,"street_address":"6785 Southwest Enterprize Boulevard","description":"Swisslog automation in the Perishables complex."}},{"geometry":{"type":"Point","coordinates":[-82.09,30.29]},"type":"Feature","id":"b194e0194d","clipped":true,"properties":{"city":"Macclenny","name":"Walmart Distribution Center","area":"880,000","country":"United States","year_opened":2002.00,"state":"Florida","postal_code":"32063","owner":"Walmart","id":115,"street_address":"2686 Commerce Road","description":null}},{"geometry":{"type":"Point","coordinates":[-81.68,28.07]},"type":"Feature","id":"8713b199e6","clipped":true,"properties":{"city":"Winter Haven","name":"Walmart Distribution Center","area":"1,000,000","country":"United States","year_opened":1996.00,"state":"Florida","postal_code":"33881","owner":"Walmart","id":116,"street_address":"5600 Highway 544","description":null}},{"geometry":{"type":"Point","coordinates":[-83.68,33.81]},"type":"Feature","id":"deadfecfe4","clipped":true,"properties":{"city":"Monroe","name":"Walmart Distribution Center","area":"880,000","country":"United States","year_opened":2000.00,"state":"Georgia","postal_code":"30655","owner":"Walmart","id":117,"street_address":"655 Unisia Drive","description":"Originally constructed as a Perishables DC at 480,000 sq ft . Added 400,000 sq ft of Dry Grocery space in 2006."}},{"geometry":{"type":"Point","coordinates":[-88.09,38.73]},"type":"Feature","id":"ef6cd5f587","clipped":true,"properties":{"city":"Olney","name":"Walmart Distribution Center","area":"933,100","country":"United States","year_opened":1997.00,"state":"Illinois","postal_code":"62450","owner":"Walmart","id":118,"street_address":"","description":"Originally constructed as a Perishables DC at 480,000 sq ft . Expanded in 2003."}},{"geometry":{"type":"Point","coordinates":[-89.79,41.78]},"type":"Feature","id":"1ef5054c87","clipped":true,"properties":{"city":"Sterling","name":"Walmart Distribution Center","area":"1,000,000","country":"United States","year_opened":2006.00,"state":"Illinois","postal_code":"61081","owner":"Walmart","id":119,"street_address":"23769 Mathew Road","description":"Swisslog automation in the Perishables complex."}},{"geometry":{"type":"Point","coordinates":[-85.58,40.47]},"type":"Feature","id":"513db3aa5b","clipped":true,"properties":{"city":"Gas City","name":"Walmart Distribution Center","area":"990,000","country":"United States","year_opened":2007.00,"state":"Indiana","postal_code":"46933","owner":"Walmart","id":120,"street_address":"100 Fisher Parkway","description":"Swisslog automation in the Perishables complex."}},{"geometry":{"type":"Point","coordinates":[-84.15,37.15]},"type":"Feature","id":"2998c82853","clipped":true,"properties":{"city":"London","name":"Walmart Distribution Center","area":"867,000","country":"United States","year_opened":1995.00,"state":"Kentucky","postal_code":"40741","owner":"Walmart","id":121,"street_address":"3701 Russell Dyche Memorial Highway","description":"Walmart's 3rd Grocery distribution center."}},{"geometry":{"type":"Point","coordinates":[-90.32,30.51]},"type":"Feature","id":"f1492c4d15","clipped":true,"properties":{"city":"Okeechobee","name":"Walmart Distribution Center","area":"850,000","country":"United States","year_opened":2001.00,"state":"Louisiana","postal_code":"70455","owner":"Walmart","id":122,"street_address":"45346 Parkway Boulevard","description":"General Merchandise RDC built for $55 Million."}},{"geometry":{"type":"Point","coordinates":[-70.19,44.06]},"type":"Feature","id":"bec07c7485","clipped":true,"properties":{"city":"Lewiston","name":"Walmart Distribution Center","area":"892,700","country":"United States","year_opened":2005.00,"state":"Maine","postal_code":"04240","owner":"Walmart","id":123,"street_address":"31 Alfred A Plourde Parkway","description":"Originally constructed to 447,055 sq ft for Dry Grocery; Expanded to include Perishables in Apr 2007. Swisslog Automation in Perishables."}},{"geometry":{"type":"Point","coordinates":[-94.36,38.61]},"type":"Feature","id":"7f4d091a08","clipped":true,"properties":{"city":"Harrison","name":"Walmart Distribution Center","area":"850,000","country":"United States","year_opened":2001.00,"state":"Missouri","postal_code":"64701","owner":"Walmart","id":124,"street_address":"5100 South Brookhart Drive","description":null}},{"geometry":{"type":"Point","coordinates":[-88.98,34.50]},"type":"Feature","id":"71b0b3b8f7","clipped":true,"properties":{"city":"Albany","name":"Walmart Distribution Center","area":"867,000","country":"United States","year_opened":1996.00,"state":"Mississippi","postal_code":"38652","owner":"Walmart","id":125,"street_address":"973 Highway 30","description":null}},{"geometry":{"type":"Point","coordinates":[-100.73,41.09]},"type":"Feature","id":"d0ad7cee56","clipped":true,"properties":{"city":"North Platte","name":"Walmart Distribution Center","area":"880,000","country":"United States","year_opened":2003.00,"state":"Nebraska","postal_code":"69101","owner":"Walmart","id":126,"street_address":"3001 East State Farm Road","description":null}},{"geometry":{"type":"Point","coordinates":[-106.77,34.83]},"type":"Feature","id":"0a213d49aa","clipped":true,"properties":{"city":"Los Lunas","name":"Walmart Distribution Center","area":"750,000","country":"United States","year_opened":1999.00,"state":"New Mexico","postal_code":"87031","owner":"Walmart","id":127,"street_address":"670 Los Morros Road","description":null}},{"geometry":{"type":"Point","coordinates":[-119.58,39.54]},"type":"Feature","id":"45f079f802","clipped":true,"properties":{"city":"Sparks","name":"Walmart Distribution Center","area":"890,000","country":"United States","year_opened":2006.00,"state":"Nevada","postal_code":"89434","owner":"Walmart","id":128,"street_address":"","description":null}},{"geometry":{"type":"Point","coordinates":[-74.41,42.99]},"type":"Feature","id":"97dd6a47c7","clipped":true,"properties":{"city":"Johnstown","name":"Walmart Distribution Center","area":"868,000","country":"United States","year_opened":2000.00,"state":"New York","postal_code":"12095","owner":"Walmart","id":129,"street_address":"300 Enterprise Road","description":null}},{"geometry":{"type":"Point","coordinates":[-83.40,39.52]},"type":"Feature","id":"cdb14cbb33","clipped":true,"properties":{"city":"Washington","name":"Walmart Distribution Center","area":"880,000","country":"United States","year_opened":2002.00,"state":"Ohio","postal_code":"43160","owner":"Walmart","id":130,"street_address":"1400 Old Chillicothe Road Southeast","description":null}},{"geometry":{"type":"Point","coordinates":[-80.74,40.41]},"type":"Feature","id":"d82767d258","clipped":true,"properties":{"city":"Wintersville","name":"Walmart Distribution Center","area":"880,000","country":"United States","year_opened":2003.00,"state":"Ohio","postal_code":"43952","owner":"Walmart","id":131,"street_address":"843 Route 43","description":null}},{"geometry":{"type":"Point","coordinates":[-95.90,36.58]},"type":"Feature","id":"ffa0e81cab","clipped":true,"properties":{"city":null,"name":"Walmart Distribution Center","area":"893,900","country":"United States","year_opened":2005.00,"state":"Oklahoma","postal_code":null,"owner":"Walmart","id":132,"street_address":"West 3000 Road","description":"Swisslog automation in the Perishables complex."}},{"geometry":{"type":"Point","coordinates":[-97.25,34.71]},"type":"Feature","id":"1e601fb565","clipped":true,"properties":{"city":"Pauls Valley","name":"Walmart Distribution Center","area":"860,000","country":"United States","year_opened":2000.00,"state":"Oklahoma","postal_code":"73075","owner":"Walmart","id":133,"street_address":"South Indian Meridian Road","description":null}},{"geometry":{"type":"Point","coordinates":[-78.54,39.92]},"type":"Feature","id":"c3496efd31","clipped":true,"properties":{"city":"Bedford","name":"Walmart Distribution Center","area":"830,000","country":"United States","year_opened":1998.00,"state":"Pennsylvania","postal_code":"15522","owner":"Walmart","id":134,"street_address":"","description":null}},{"geometry":{"type":"Point","coordinates":[-76.32,40.73]},"type":"Feature","id":"18d2c48536","clipped":true,"properties":{"city":"Pottsville","name":"Walmart Distribution Center","area":"900,000","country":"United States","year_opened":2006.00,"state":"Pennsylvania","postal_code":"17901","owner":"Walmart","id":135,"street_address":"390 Highridge Park Road","description":"Swisslog automation in the Perishables complex."}},{"geometry":{"type":"Point","coordinates":[-80.41,34.80]},"type":"Feature","id":"21dfccf7e5","clipped":true,"properties":{"city":"Page","name":"Walmart Distribution Center","area":"830,000","country":"United States","year_opened":1997.00,"state":"South Carolina","postal_code":"29728","owner":"Walmart","id":136,"street_address":"160 State Road S-13-682","description":"Facility was expanded in 2003."}},{"geometry":{"type":"Point","coordinates":[-86.46,35.57]},"type":"Feature","id":"8491cd76d6","clipped":true,"properties":{"city":"Shelbyville","name":"Walmart Distribution Center","area":"850,000","country":"United States","year_opened":2001.00,"state":"Tennessee","postal_code":"37160","owner":"Walmart","id":137,"street_address":"285 Frank Martin Road","description":"Originally constructed as a Perishables facility of 370,000 sq ft. Facility was expanded in Nov 2005."}},{"geometry":{"type":"Point","coordinates":[-97.43,32.41]},"type":"Feature","id":"4e88833169","clipped":true,"properties":{"city":"Cleburne","name":"Walmart Distribution Center","area":"888,000","country":"United States","year_opened":2002.00,"state":"Texas","postal_code":"76033","owner":"Walmart","id":138,"street_address":"3470 Windmill Road","description":null}},{"geometry":{"type":"Point","coordinates":[-95.31,30.16]},"type":"Feature","id":"eaacffa15d","clipped":true,"properties":{"city":null,"name":"Walmart Distribution Center","area":"901,000","country":"United States","year_opened":2003.00,"state":"Texas","postal_code":"77357","owner":"Walmart","id":139,"street_address":"20131 Gene Campbell Road","description":"Swisslog automation in the Perishables complex which has 75' High ceilings."}},{"geometry":{"type":"Point","coordinates":[-97.37,31.07]},"type":"Feature","id":"021449e150","clipped":true,"properties":{"city":"Temple","name":"Walmart Distribution Center","area":"850,000","country":"United States","year_opened":1993.00,"state":"Texas","postal_code":"76504","owner":"Walmart","id":140,"street_address":"Southwest H K Dodgen Loop","description":"Perishables facility was expanded by 94,000 sq ft in 2001."}},{"geometry":{"type":"Point","coordinates":[-112.14,41.56]},"type":"Feature","id":"4942768730","clipped":true,"properties":{"city":null,"name":"Walmart Distribution Center","area":"875,000","country":"United States","year_opened":2000.00,"state":"Utah","postal_code":"84307","owner":"Walmart","id":141,"street_address":"5400 Highway 83","description":"Originally built to 984,000 sq ft in 1988 and later expanded in 1998."}},{"geometry":{"type":"Point","coordinates":[-78.20,37.98]},"type":"Feature","id":"e5d7f66319","clipped":true,"properties":{"city":"Gordon","name":"Walmart Distribution Center","area":"880,000","country":"United States","year_opened":2003.00,"state":"Virginia","postal_code":"22942","owner":"Walmart","id":142,"street_address":"10695 Freedom Trail","description":"Facility expanded in 2009."}},{"geometry":{"type":"Point","coordinates":[-119.92,46.28]},"type":"Feature","id":"797af4d786","clipped":true,"properties":{"city":"Grandview","name":"Walmart Distribution Center","area":"880,000","country":"United States","year_opened":2004.00,"state":"Washington","postal_code":"98930","owner":"Walmart","id":143,"street_address":"546 Woodall Road","description":"Originally built to 700,000 sq ft and later expanded in 1998."}},{"geometry":{"type":"Point","coordinates":[-90.47,43.99]},"type":"Feature","id":"b42e8610f6","clipped":true,"properties":{"city":"Tomah","name":"Walmart Distribution Center","area":"880,000","country":"United States","year_opened":2000.00,"state":"Wisconsin","postal_code":"54660","owner":"Walmart","id":144,"street_address":"525 Industrial Avenue","description":null}},{"geometry":{"type":"Point","coordinates":[-104.90,41.12]},"type":"Feature","id":"f8e3265fb9","clipped":true,"properties":{"city":"Cheyenne","name":"Walmart Distribution Center","area":"890,000","country":"United States","year_opened":2007.00,"state":"Wyoming","postal_code":"82009","owner":"Walmart","id":145,"street_address":"426 Logistics Drive","description":"Swisslog automation in the Perishables complex."}},{"geometry":{"type":"Point","coordinates":[-117.33,34.00]},"type":"Feature","id":"d6f216c7ee","clipped":true,"properties":{"city":"Riverside","name":"Walmart Distribution Center","area":"520,000","country":"United States","year_opened":2011.00,"state":"California","postal_code":"92507","owner":"Walmart","id":147,"street_address":"1001 Columbia Avenue","description":"Freezer complex with 60,000 pallet positions that was leased in 2011 for 15 years."}},{"geometry":{"type":"Point","coordinates":[-85.11,41.37]},"type":"Feature","id":"3e8e84f24f","clipped":true,"properties":{"city":"Auburn","name":"Walmart Distribution Center","area":"400,000","country":"United States","year_opened":2001.00,"state":"Indiana","postal_code":"46706","owner":"Walmart","id":148,"street_address":"1729 State Road 8","description":null}},{"geometry":{"type":"Point","coordinates":[-92.45,39.43]},"type":"Feature","id":"0dc5624ee6","clipped":true,"properties":{"city":"Okeechobee","name":"Walmart Distribution Center","area":"450,000","country":"United States","year_opened":2002.00,"state":"Missouri","postal_code":"65270","owner":"Walmart","id":149,"street_address":"1309 U.S. 24","description":null}},{"geometry":{"type":"Point","coordinates":[-78.38,36.29]},"type":"Feature","id":"aa1b1368dc","clipped":true,"properties":{"city":"Henderson","name":"Walmart Distribution Center","area":"400,000","country":"United States","year_opened":2002.00,"state":"North Carolina","postal_code":"27537","owner":"Walmart","id":150,"street_address":"680 Vanco Mill Road","description":null}},{"geometry":{"type":"Point","coordinates":[-96.33,32.73]},"type":"Feature","id":"97e2e7b678","clipped":true,"properties":{"city":"Terrell","name":"Walmart Distribution Center","area":"420,000","country":"United States","year_opened":2000.00,"state":"Texas","postal_code":"75160","owner":"Walmart","id":151,"street_address":"591 Apache Trail","description":null}},{"geometry":{"type":"Point","coordinates":[-93.95,44.20]},"type":"Feature","id":"1369f1d146","clipped":true,"properties":{"city":"Mankato","name":"Walmart Distribution Center","area":"420,000","country":"United States","year_opened":2015.00,"state":"Minnesota","postal_code":"56001","owner":"Walmart","id":152,"street_address":"County Road 12","description":"Perishables distribution center with construction set to begin in 2014 and anticipated go-live in 2015."}},{"geometry":{"type":"Point","coordinates":[-79.27,36.10]},"type":"Feature","id":"46e3a2759f","clipped":true,"properties":{"city":"Mebane","name":"Walmart Distribution Center","area":"450,000","country":"United States","year_opened":null,"state":"North Carolina","postal_code":null,"owner":"Walmart","id":153,"street_address":"","description":"Perishables distribution center with construction set to begin in 2015. Anticipated go-live in mid-2016. 450 jobs."}},{"geometry":{"type":"Point","coordinates":[-117.51,34.07]},"type":"Feature","id":"a82b1ef118","clipped":true,"properties":{"city":"Fontana","name":"Walmart Distribution Center","area":"758,000","country":"United States","year_opened":2004.00,"state":"California","postal_code":"92335","owner":"Walmart","id":155,"street_address":"13550 Valley Boulevard","description":"3PL Inland Cold Storage Owned and Operated."}},{"geometry":{"type":"Point","coordinates":[-117.54,34.01]},"type":"Feature","id":"f6627843c7","clipped":true,"properties":{"city":"Mira Loma","name":"Walmart Distribution Center","area":"448,000","country":"United States","year_opened":2000.00,"state":"California","postal_code":"91752","owner":"Walmart","id":156,"street_address":"4155 Wineville Avenue","description":"Sam's Club Import Center run by 3PL DAMCO."}},{"geometry":{"type":"Point","coordinates":[-117.55,34.01]},"type":"Feature","id":"9e418e5ec7","clipped":true,"properties":{"city":"Mira Loma","name":"Walmart Distribution Center","area":"755,100","country":"United States","year_opened":1999.00,"state":"California","postal_code":"91752","owner":"Walmart","id":157,"street_address":"4250 Hamner Avenue","description":"Walmart Import Center run by 3PL Schneider Logistics."}},{"geometry":{"type":"Point","coordinates":[-117.55,34.01]},"type":"Feature","id":"d1b17f1614","clipped":true,"properties":{"city":"Mira Loma","name":"Walmart Distribution Center","area":"901,662","country":"United States","year_opened":2000.00,"state":"California","postal_code":"91752","owner":"Walmart","id":158,"street_address":"4100 Hamner Avenue","description":"Walmart Import Center run by 3PL Schneider Logistics."}},{"geometry":{"type":"Point","coordinates":[-81.83,32.39]},"type":"Feature","id":"0c8b08cbb0","clipped":true,"properties":{"city":"Antlers","name":"Walmart Distribution Center","area":"2,200,000","country":"United States","year_opened":1995.00,"state":"Georgia","postal_code":"30458","owner":"Walmart","id":159,"street_address":"299 Aj Riggs Road","description":"Started as a 1,700,000 sq ft DC and later expanded by 500,000 in 1999."}},{"geometry":{"type":"Point","coordinates":[-88.13,41.40]},"type":"Feature","id":"4d2c85bd8d","clipped":true,"properties":{"city":"Elwood","name":"Walmart Distribution Center","area":"3,400,000","country":"United States","year_opened":2006.00,"state":"Illinois","postal_code":"60421","owner":"Walmart","id":160,"street_address":"Center Point Drive","description":"Walmart Import Center run by 3PL Schneider Logistics. Campus of 2 buildings 1.4 & 1.8 M sq ft."}},{"geometry":{"type":"Point","coordinates":[-94.91,29.72]},"type":"Feature","id":"9b79b3e3d3","clipped":true,"properties":{"city":"Baytown","name":"Walmart Distribution Center","area":"4,200,000","country":"United States","year_opened":2005.00,"state":"Texas","postal_code":"77523","owner":"Walmart","id":161,"street_address":"Oscar Nelson Jr. Drive","description":"Walmart Import Center run by 3PL UTi Logistics. Campus of 2 buildings."}},{"geometry":{"type":"Point","coordinates":[-76.60,37.21]},"type":"Feature","id":"6ca938c0a8","clipped":true,"properties":{"city":"Williams","name":"Walmart Distribution Center","area":"3,000,000","country":"United States","year_opened":2000.00,"state":"Virginia","postal_code":"23185","owner":"Walmart","id":162,"street_address":"9305 Pocahontas Trail","description":"Originally constructed to 1,000,000 sq ft and later expanded to 2,000,000 sq ft in Nov 2001 and again expanded by 1,000,000 sq ft in 2004-2005. Campus of 2 buildings."}},{"geometry":{"type":"Point","coordinates":[-94.19,36.37]},"type":"Feature","id":"43f9eeb250","clipped":true,"properties":{"city":"Benton","name":"Walmart Distribution Center","area":"18,700","country":"United States","year_opened":1994.00,"state":"Arkansas","postal_code":"72712","owner":"Walmart","id":163,"street_address":"509 Southeast Martin Luther King Junior Parkway","description":null}},{"geometry":{"type":"Point","coordinates":[-117.33,34.03]},"type":"Feature","id":"04897427e0","clipped":true,"properties":{"city":"Colton","name":"Walmart Distribution Center","area":"125,800","country":"United States","year_opened":2006.00,"state":"California","postal_code":"92324","owner":"Walmart","id":164,"street_address":"280 De Berry Street","description":"Lineage Logistics operates this facility which is a public cold storage for local Southern California frozen food manufacturers."}},{"geometry":{"type":"Point","coordinates":[-117.55,34.02]},"type":"Feature","id":"1efa2bfb74","clipped":true,"properties":{"city":"Mira Loma","name":"Walmart Distribution Center","area":"599,340","country":"United States","year_opened":2009.00,"state":"California","postal_code":"91752","owner":"Walmart","id":165,"street_address":"11888 Mission Boulevard","description":"3PL is The Gilbert Company."}},{"geometry":{"type":"Point","coordinates":[-117.99,34.11]},"type":"Feature","id":"0e4e5a8780","clipped":true,"properties":{"city":"Alpine","name":"Walmart Distribution Center","area":"108,850","country":"United States","year_opened":2009.00,"state":"California","postal_code":"91706","owner":"Walmart","id":166,"street_address":"600 Live Oak Avenue","description":"3PL is MIQ Logistics."}},{"geometry":{"type":"Point","coordinates":[-84.34,33.64]},"type":"Feature","id":"dc6c635f2a","clipped":true,"properties":{"city":"Conley","name":"Walmart Distribution Center","area":"53,360","country":"United States","year_opened":2011.00,"state":"Georgia","postal_code":null,"owner":"Walmart","id":167,"street_address":"","description":"3PL is Exel Logistics."}},{"geometry":{"type":"Point","coordinates":[-88.88,42.25]},"type":"Feature","id":"00e62b3e3e","clipped":true,"properties":{"city":"Belvidere","name":"Walmart Distribution Center","area":"177,800","country":"United States","year_opened":2011.00,"state":"Illinois","postal_code":"61008","owner":"Walmart","id":168,"street_address":"6765 Imron Drive","description":"Americold operates this facility which is a public cold storage facility."}},{"geometry":{"type":"Point","coordinates":[-87.50,41.64]},"type":"Feature","id":"801ee6d65a","clipped":true,"properties":{"city":"Hammond","name":"Walmart Distribution Center","area":"150,720","country":"United States","year_opened":2011.00,"state":"Indiana","postal_code":"46327","owner":"Walmart","id":169,"street_address":"1340 141st Street","description":"3PL is Linc Logistics Insight Corp."}},{"geometry":{"type":"Point","coordinates":[-80.69,35.38]},"type":"Feature","id":"7fc66f41d1","clipped":true,"properties":{"city":"Concord","name":"Walmart Distribution Center","area":"104,380","country":"United States","year_opened":2011.00,"state":"North Carolina","postal_code":"28027","owner":"Walmart","id":170,"street_address":"423 Pitts School Road Northwest","description":"3PL is Distribution Technology Inc."}},{"geometry":{"type":"Point","coordinates":[-75.31,41.04]},"type":"Feature","id":"4545827707","clipped":true,"properties":{"city":"Tannersville","name":"Walmart Distribution Center","area":"103,700","country":"United States","year_opened":2012.00,"state":"Pennsylvania","postal_code":null,"owner":"Walmart","id":171,"street_address":"","description":"3PL is MIQ Logistics Inc."}},{"geometry":{"type":"Point","coordinates":[-89.93,35.08]},"type":"Feature","id":"6d8c2be451","clipped":true,"properties":{"city":"Memphis","name":"Walmart Distribution Center","area":"93,100","country":"United States","year_opened":2011.00,"state":"Tennessee","postal_code":"38111","owner":"Walmart","id":172,"street_address":"1980 Getwell Road","description":"3PL is Linc Logistics Insight Corp."}},{"geometry":{"type":"Point","coordinates":[-96.67,32.79]},"type":"Feature","id":"f0629b73eb","clipped":true,"properties":{"city":"Dallas","name":"Walmart Distribution Center","area":"77,000","country":"United States","year_opened":2010.00,"state":"Texas","postal_code":"75227","owner":"Walmart","id":173,"street_address":"5210 Catron Drive","description":"Americold operates this facility which is a public cold storage facility."}},{"geometry":{"type":"Point","coordinates":[-93.28,45.08]},"type":"Feature","id":"7a6998c4bb","clipped":true,"properties":{"city":"Minneapolis","name":"Target Distribution Center","area":"Unknown","country":"United States","year_opened":null,"state":"Minnesota","postal_code":"55430","owner":"Target","id":174,"street_address":"7008 Willow Lane","description":null}},{"geometry":{"type":"Point","coordinates":[-117.46,34.16]},"type":"Feature","id":"66bbe7194e","clipped":true,"properties":{"city":"Fontana","name":"Target Distribution Center","area":"Unknown","country":"United States","year_opened":null,"state":"California","postal_code":"92336","owner":"Target","id":175,"street_address":"5350 Mazzulli Court","description":null}},{"geometry":{"type":"Point","coordinates":[-104.53,38.28]},"type":"Feature","id":"67a297fd73","clipped":true,"properties":{"city":"Pueblo","name":"Target Distribution Center","area":"Unknown","country":"United States","year_opened":null,"state":"Colorado","postal_code":"81001","owner":"Target","id":176,"street_address":"William White Boulevard","description":null}},{"geometry":{"type":"Point","coordinates":[-121.77,38.68]},"type":"Feature","id":"508a7f086d","clipped":true,"properties":{"city":"Woodland","name":"Target Distribution Center","area":"Unknown","country":"United States","year_opened":null,"state":"California","postal_code":"95695","owner":"Target","id":177,"street_address":"300-320 1st Street","description":null}},{"geometry":{"type":"Point","coordinates":[-83.51,31.45]},"type":"Feature","id":"9cf61126e3","clipped":true,"properties":{"city":"Tifton","name":"Target Distribution Center","area":"Unknown","country":"United States","year_opened":null,"state":"Georgia","postal_code":"31794","owner":"Target","id":178,"street_address":"208 East 5th Street","description":null}},{"geometry":{"type":"Point","coordinates":[-88.50,43.11]},"type":"Feature","id":"66d6ab662c","clipped":true,"properties":{"city":"Oconomowoc","name":"Target Distribution Center","area":"Unknown","country":"United States","year_opened":null,"state":"Wisconsin","postal_code":"53066","owner":"Target","id":179,"street_address":"105-107 North Main Street","description":null}},{"geometry":{"type":"Point","coordinates":[-123.11,44.64]},"type":"Feature","id":"e16233ac9e","clipped":true,"properties":{"city":"Albany","name":"Target Distribution Center","area":"Unknown","country":"United States","year_opened":null,"state":"Oregon","postal_code":"97321","owner":"Target","id":180,"street_address":"125-199 Southwest 2nd Avenue","description":null}},{"geometry":{"type":"Point","coordinates":[-86.34,39.67]},"type":"Feature","id":"2f6c3409b6","clipped":true,"properties":{"city":"Indianapolis","name":"Target Distribution Center","area":"Unknown","country":"United States","year_opened":null,"state":"Indiana","postal_code":"46231","owner":"Target","id":181,"street_address":"6201-6611 White Lick Creek Road","description":null}},{"geometry":{"type":"Point","coordinates":[-79.03,38.03]},"type":"Feature","id":"bf0476999b","clipped":true,"properties":{"city":"Stuart","name":"Target Distribution Center","area":"Unknown","country":"United States","year_opened":null,"state":"Virginia","postal_code":"24477","owner":"Target","id":182,"street_address":"122 Draft Avenue","description":null}},{"geometry":{"type":"Point","coordinates":[-95.44,32.47]},"type":"Feature","id":"ee77be4cb7","clipped":true,"properties":{"city":"Tyler","name":"Target Distribution Center","area":"Unknown","country":"United States","year_opened":null,"state":"Texas","postal_code":"75704","owner":"Target","id":183,"street_address":"Interstate 20","description":null}},{"geometry":{"type":"Point","coordinates":[-73.61,43.13]},"type":"Feature","id":"aca5ab4cff","clipped":true,"properties":{"city":"Schuylerville","name":"Target Distribution Center","area":"Unknown","country":"United States","year_opened":null,"state":"New York","postal_code":"12871","owner":"Target","id":184,"street_address":"551 New York 32","description":null}},{"geometry":{"type":"Point","coordinates":[-76.52,36.80]},"type":"Feature","id":"739dd7dfc7","clipped":true,"properties":{"city":"Suffolk","name":"Target Distribution Center","area":"Unknown","country":"United States","year_opened":null,"state":"Virginia","postal_code":"23434","owner":"Target","id":185,"street_address":"3310 Nansemond Parkway","description":null}},{"geometry":{"type":"Point","coordinates":[-96.99,32.48]},"type":"Feature","id":"c1a299dbdf","clipped":true,"properties":{"city":"Midlothian","name":"Target Distribution Center","area":"Unknown","country":"United States","year_opened":null,"state":"Texas","postal_code":"76065","owner":"Target","id":186,"street_address":"100 North 8th Street","description":null}},{"geometry":{"type":"Point","coordinates":[-74.19,42.94]},"type":"Feature","id":"7e13169829","clipped":true,"properties":{"city":"Amsterdam","name":"Target Distribution Center","area":"Unknown","country":"United States","year_opened":null,"state":"New York","postal_code":"12010","owner":"Target","id":187,"street_address":"61 Church Street","description":null}},{"geometry":{"type":"Point","coordinates":[-95.68,38.98]},"type":"Feature","id":"630561b42b","clipped":true,"properties":{"city":"Topeka","name":"Target Distribution Center","area":"Unknown","country":"United States","year_opened":null,"state":"Kansas","postal_code":"66609","owner":"Target","id":188,"street_address":"Landon Nature Trail","description":null}},{"geometry":{"type":"Point","coordinates":[-83.27,39.94]},"type":"Feature","id":"0c06880a27","clipped":true,"properties":{"city":"Estherville","name":"Target Distribution Center","area":"Unknown","country":"United States","year_opened":null,"state":"Ohio","postal_code":"43162","owner":"Target","id":189,"street_address":"1-19 West Main Street","description":null}},{"geometry":{"type":"Point","coordinates":[-117.40,34.16]},"type":"Feature","id":"9105ca0d2e","clipped":true,"properties":{"city":"Rialto","name":"Target Distribution Center","area":"Unknown","country":"United States","year_opened":null,"state":"California","postal_code":"92377","owner":"Target","id":190,"street_address":"3448 North Riverside Avenue","description":null}},{"geometry":{"type":"Point","coordinates":[-81.43,31.81]},"type":"Feature","id":"d14695d7b7","clipped":true,"properties":{"city":"Midway","name":"Target Distribution Center","area":"Unknown","country":"United States","year_opened":null,"state":"Georgia","postal_code":"31320","owner":"Target","id":192,"street_address":"North Coastal Highway","description":null}},{"geometry":{"type":"Point","coordinates":[-88.75,41.93]},"type":"Feature","id":"238e311e29","clipped":true,"properties":{"city":"DeKalb","name":"Target Distribution Center","area":"Unknown","country":"United States","year_opened":null,"state":"Illinois","postal_code":"60115","owner":"Target","id":193,"street_address":"300-398 Lincoln Highway","description":null}},{"geometry":{"type":"Point","coordinates":[-81.19,32.14]},"type":"Feature","id":"02820660d6","clipped":true,"properties":{"city":"Savanna","name":"Target Distribution Center","area":"Unknown","country":"United States","year_opened":null,"state":"Georgia","postal_code":"31408","owner":"Target","id":194,"street_address":"Robert B. Miller Road","description":null}},{"geometry":{"type":"Point","coordinates":[-81.22,35.67]},"type":"Feature","id":"74ff2f9fb7","clipped":true,"properties":{"city":"Newton","name":"Target Distribution Center","area":"Unknown","country":"United States","year_opened":null,"state":"North Carolina","postal_code":"28658","owner":"Target","id":195,"street_address":"701-799 Highway 16 Business","description":null}},{"geometry":{"type":"Point","coordinates":[-82.64,30.19]},"type":"Feature","id":"ef343aac13","clipped":true,"properties":{"city":"Lake City","name":"Target Distribution Center","area":"Unknown","country":"United States","year_opened":null,"state":"Florida","postal_code":"32055","owner":"Target","id":196,"street_address":"1-99 Highway 100","description":null}},{"geometry":{"type":"Point","coordinates":[-112.16,33.47]},"type":"Feature","id":"9b48f8b841","clipped":true,"properties":{"city":"Phoenix","name":"Target Distribution Center","area":"Unknown","country":"United States","year_opened":null,"state":"Arizona","postal_code":"85043","owner":"Target","id":197,"street_address":"1550 North 47th Avenue","description":null}},{"geometry":{"type":"Point","coordinates":[-97.33,32.68]},"type":"Feature","id":"5da9fe7c57","clipped":true,"properties":{"city":"Fort Worth","name":"Target Distribution Center","area":"Unknown","country":"United States","year_opened":null,"state":"Texas","postal_code":"76115","owner":"Target","id":198,"street_address":"4464 Hemphill Street","description":null}},{"geometry":{"type":"Point","coordinates":[-92.45,42.52]},"type":"Feature","id":"02093d822d","clipped":true,"properties":{"city":"Cedar Falls","name":"Target Distribution Center","area":"Unknown","country":"United States","year_opened":null,"state":"Iowa","postal_code":"50613","owner":"Target","id":199,"street_address":"1610 Washington Street","description":null}},{"geometry":{"type":"Point","coordinates":[-92.94,44.92]},"type":"Feature","id":"b4eb9d8419","clipped":true,"properties":{"city":"Woodbury","name":"Target Distribution Center","area":"Unknown","country":"United States","year_opened":null,"state":"Minnesota","postal_code":"55125","owner":"Target","id":200,"street_address":"Valley Creek Road","description":null}},{"geometry":{"type":"Point","coordinates":[-110.72,32.06]},"type":"Feature","id":"45522bc714","clipped":true,"properties":{"city":"Vail","name":"Target Distribution Center","area":"Unknown","country":"United States","year_opened":null,"state":"Arizona","postal_code":"85641","owner":"Target","id":201,"street_address":"10776 South Bear Table Tank Drive","description":null}},{"geometry":{"type":"Point","coordinates":[-117.60,34.05]},"type":"Feature","id":"b18b018bec","clipped":true,"properties":{"city":"Ontario","name":"Target Distribution Center","area":"Unknown","country":"United States","year_opened":null,"state":"California","postal_code":"91761","owner":"Target","id":202,"street_address":"Tower Drive","description":null}},{"geometry":{"type":"Point","coordinates":[-86.75,34.70]},"type":"Feature","id":"ad78b4c7a9","clipped":true,"properties":{"city":"Madison","name":"Target Distribution Center","area":"Unknown","country":"United States","year_opened":null,"state":"Alabama","postal_code":"35758","owner":"Target","id":203,"street_address":"327-399 Church Street","description":null}},{"geometry":{"type":"Point","coordinates":[-85.42,42.29]},"type":"Feature","id":"068bc0c433","clipped":true,"properties":{"city":"Alpine","name":"Target Distribution Center","area":"Unknown","country":"United States","year_opened":null,"state":"Michigan","postal_code":"49053","owner":"Target","id":204,"street_address":"Mill Street","description":null}},{"geometry":{"type":"Point","coordinates":[-77.66,39.94]},"type":"Feature","id":"54e52fcc8d","clipped":true,"properties":{"city":"Chambersburg","name":"Target Distribution Center","area":"Unknown","country":"United States","year_opened":null,"state":"Pennsylvania","postal_code":"17201","owner":"Target","id":206,"street_address":"101-171 Lincoln Highway","description":null}},{"geometry":{"type":"Point","coordinates":[-119.27,35.50]},"type":"Feature","id":"00eaade1e1","clipped":true,"properties":{"city":"Shafter","name":"Target Distribution Center","area":"Unknown","country":"United States","year_opened":null,"state":"California","postal_code":"93263","owner":"Target","id":208,"street_address":"Jackson Avenue","description":null}},{"geometry":{"type":"Point","coordinates":[-80.69,34.23]},"type":"Feature","id":"426ce27a82","clipped":true,"properties":{"city":"Lugoff","name":"Target Distribution Center","area":"Unknown","country":"United States","year_opened":null,"state":"South Carolina","postal_code":"29078","owner":"Target","id":209,"street_address":"922-936 Highway 34","description":null}},{"geometry":{"type":"Point","coordinates":[-122.82,47.03]},"type":"Feature","id":"2664c15a77","clipped":true,"properties":{"city":"Lacey","name":"Target Distribution Center","area":"Unknown","country":"United States","year_opened":null,"state":"Washington","postal_code":"98503","owner":"Target","id":210,"street_address":"1324 College Street Southeast","description":null}},{"geometry":{"type":"Point","coordinates":[-83.07,40.30]},"type":"Feature","id":"b88a403a33","clipped":true,"properties":{"city":"Delaware","name":"Great Lakes Distribution Center","area":"Unknown","country":"United States","year_opened":null,"state":"Ohio","postal_code":null,"owner":"Krogers","id":211,"street_address":"","description":null}},{"geometry":{"type":"Point","coordinates":[-95.27,29.78]},"type":"Feature","id":"0542da69d8","clipped":true,"properties":{"city":"Houston","name":"Kroger Distribution Center","area":"Unknown","country":"United States","year_opened":null,"state":"Texas","postal_code":"77029","owner":"Krogers","id":212,"street_address":"701 Gellhorn Drive","description":null}},{"geometry":{"type":"Point","coordinates":[-89.87,35.01]},"type":"Feature","id":"e925922a89","clipped":true,"properties":{"city":"Memphis","name":"Kroger Distribution Center","area":"Unknown","country":"United States","year_opened":null,"state":"Tennessee","postal_code":"38141","owner":"Krogers","id":213,"street_address":"5079 Bledsoe Road","description":null}},{"geometry":{"type":"Point","coordinates":[-89.93,35.03]},"type":"Feature","id":"58966e3095","clipped":true,"properties":{"city":"Memphis","name":"Kroger Distribution Center","area":"Unknown","country":"United States","year_opened":null,"state":"Tennessee","postal_code":"38118","owner":"Krogers","id":214,"street_address":"4524 Delp Street","description":null}},{"geometry":{"type":"Point","coordinates":[-83.76,40.27]},"type":"Feature","id":"b5c5b4fe0e","clipped":true,"properties":{"city":"Estherville","name":"Kroger Northern Floral Distribution Center","area":"Unknown","country":"United States","year_opened":null,"state":"Ohio","postal_code":"43357","owner":"Krogers","id":215,"street_address":"6893 County Road 14","description":null}},{"geometry":{"type":"Point","coordinates":[-82.28,34.74]},"type":"Feature","id":"aa465af5d3","clipped":true,"properties":{"city":"Simpsonville","name":"Kroger Southeastern Floral Distribution Center","area":"Unknown","country":"United States","year_opened":null,"state":"South Carolina","postal_code":"29680","owner":"Krogers","id":216,"street_address":"136 Blakely Road","description":null}},{"geometry":{"type":"Point","coordinates":[-97.88,38.06]},"type":"Feature","id":"ed37a00f1b","clipped":true,"properties":{"city":"Hutchinson","name":"Central Bakery","area":"Unknown","country":"United States","year_opened":null,"state":"Kansas","postal_code":"67501","owner":"Krogers","id":217,"street_address":"2516 East 4th Avenue","description":null}},{"geometry":{"type":"Point","coordinates":[-97.88,38.06]},"type":"Feature","id":"4b5c392ed7","clipped":true,"properties":{"city":"Hutchinson","name":"Dillons Distribution Center","area":"Unknown","country":"United States","year_opened":null,"state":"Kansas","postal_code":"67501","owner":"Krogers","id":218,"street_address":"2700 East 4th Avenue","description":null}},{"geometry":{"type":"Point","coordinates":[-97.59,37.66]},"type":"Feature","id":"79ae55402a","clipped":true,"properties":{"city":"Goddard","name":"Dillons Distribution Center","area":"Unknown","country":"United States","year_opened":null,"state":"Kansas","postal_code":"67052","owner":"Krogers","id":219,"street_address":"21999 U.S. 54","description":null}},{"geometry":{"type":"Point","coordinates":[-122.55,45.41]},"type":"Feature","id":"3f0c38bc9f","clipped":true,"properties":{"city":"Nantucket","name":"Fred Meyer Distribution Center","area":"Unknown","country":"United States","year_opened":null,"state":"Oregon","postal_code":"97015","owner":"Krogers","id":220,"street_address":"11506 Southeast Highway 212","description":null}},{"geometry":{"type":"Point","coordinates":[-122.30,47.21]},"type":"Feature","id":"07ea07f5d2","clipped":true,"properties":{"city":"Puyallup","name":"Fred Meyer Distribution Center","area":"Unknown","country":"United States","year_opened":null,"state":"Washington","postal_code":"98371","owner":"Krogers","id":221,"street_address":"2200 North Meridian","description":null}},{"geometry":{"type":"Point","coordinates":[-122.92,46.63]},"type":"Feature","id":"76568f916f","clipped":true,"properties":{"city":"Chehalis","name":"Fred Meyer Distribution Center","area":"Unknown","country":"United States","year_opened":null,"state":"Washington","postal_code":"98532","owner":"Krogers","id":222,"street_address":"222 Maurin Road","description":null}},{"geometry":{"type":"Point","coordinates":[-118.24,33.87]},"type":"Feature","id":"b6872a38eb","clipped":true,"properties":{"city":"Compton","name":"Ralphs Distribution Center","area":"Unknown","country":"United States","year_opened":null,"state":"California","postal_code":"90220","owner":"Krogers","id":223,"street_address":"2201 South Wilmington Avenue","description":null}},{"geometry":{"type":"Point","coordinates":[-118.27,34.14]},"type":"Feature","id":"8e676372f4","clipped":true,"properties":{"city":"East Los Angeles","name":"Ralphs Distribution Center","area":"Unknown","country":"United States","year_opened":null,"state":"California","postal_code":"90039","owner":"Krogers","id":224,"street_address":"4841 West San Fernando Road","description":null}},{"geometry":{"type":"Point","coordinates":[-117.31,33.93]},"type":"Feature","id":"61ce78471f","clipped":true,"properties":{"city":"Riverside","name":"Ralphs Distribution Center","area":"Unknown","country":"United States","year_opened":null,"state":"California","postal_code":"92507","owner":"Krogers","id":225,"street_address":"1500 Eastridge Avenue","description":null}},{"geometry":{"type":"Point","coordinates":[-118.17,33.90]},"type":"Feature","id":"84c5b8212b","clipped":true,"properties":{"city":"Paramount","name":"Ralphs Distribution Center","area":"Unknown","country":"United States","year_opened":null,"state":"California","postal_code":"90723","owner":"Krogers","id":226,"street_address":"14900 Garfield Avenue","description":null}},{"geometry":{"type":"Point","coordinates":[-86.53,36.61]},"type":"Feature","id":"8ef4612fce","clipped":true,"properties":{"city":"Portland","name":"Peyton's Midsouth Distribution Center","area":"Unknown","country":"United States","year_opened":null,"state":"Tennessee","postal_code":"37148","owner":"Krogers","id":227,"street_address":"120 Kirby Drive","description":null}},{"geometry":{"type":"Point","coordinates":[-84.90,35.14]},"type":"Feature","id":"7cc8317bf9","clipped":true,"properties":{"city":"Cleveland","name":"Peyton's Southeastern Distribution Center","area":"Unknown","country":"United States","year_opened":null,"state":"Tennessee","postal_code":"37311","owner":"Krogers","id":228,"street_address":"153 Refreshment Lane Southwest","description":null}},{"geometry":{"type":"Point","coordinates":[-85.20,40.73]},"type":"Feature","id":"2798b24f7d","clipped":true,"properties":{"city":"Bluffton","name":"Peyton's Northern Distribution Center","area":"Unknown","country":"United States","year_opened":null,"state":"Indiana","postal_code":"46714","owner":"Krogers","id":229,"street_address":"1111 South Adams Street","description":null}},{"geometry":{"type":"Point","coordinates":[-111.99,41.07]},"type":"Feature","id":"50693a480f","clipped":true,"properties":{"city":"Layton","name":"Smith's Layton Distribution Center","area":"Unknown","country":"United States","year_opened":null,"state":"Utah","postal_code":"84041","owner":"Krogers","id":230,"street_address":"500 Sugar Street","description":null}},{"geometry":{"type":"Point","coordinates":[-112.17,33.44]},"type":"Feature","id":"45daa0754c","clipped":true,"properties":{"city":"Phoenix","name":"Kroger Distribution Center","area":"Unknown","country":"United States","year_opened":null,"state":"Arizona","postal_code":"85043","owner":"Krogers","id":231,"street_address":"5305 West Buckeye Road","description":null}},{"geometry":{"type":"Point","coordinates":[-112.28,33.44]},"type":"Feature","id":"7a0b5a0632","clipped":true,"properties":{"city":"Tolleson","name":"Kroger Distribution Center","area":"Unknown","country":"United States","year_opened":null,"state":"Arizona","postal_code":"85353","owner":"Krogers","id":232,"street_address":"500 South 99th Avenue","description":null}},{"geometry":{"type":"Point","coordinates":[-111.91,33.47]},"type":"Feature","id":"d51d25ebbe","clipped":true,"properties":{"city":"Alpine","name":"Kroger Distribution Center","area":"Unknown","country":"United States","year_opened":null,"state":"Arizona","postal_code":"85257","owner":"Krogers","id":233,"street_address":"7770 East McDowell Road","description":null}},{"geometry":{"type":"Point","coordinates":[-112.24,33.44]},"type":"Feature","id":"b6fbbef699","clipped":true,"properties":{"city":"Tolleson","name":"Costco Distribution Center","area":"Unknown","country":"United States","year_opened":null,"state":"Arizona","postal_code":"85353","owner":"Costco","id":234,"street_address":"8400 West Sherman Street","description":null}},{"geometry":{"type":"Point","coordinates":[-117.54,34.02]},"type":"Feature","id":"a1a726cd03","clipped":true,"properties":{"city":"Mira Loma","name":"Costco Distribution Center","area":"Unknown","country":"United States","year_opened":null,"state":"California","postal_code":"91752","owner":"Costco","id":235,"street_address":"11600 Riverside Drive","description":null}},{"geometry":{"type":"Point","coordinates":[-121.43,37.74]},"type":"Feature","id":"3f6c55a015","clipped":true,"properties":{"city":"Tracy-le-Mont","name":"Costco Distribution Center","area":"Unknown","country":"United States","year_opened":null,"state":"California","postal_code":null,"owner":"Costco","id":236,"street_address":"","description":null}},{"geometry":{"type":"Point","coordinates":[-80.13,26.76]},"type":"Feature","id":"67f5999b94","clipped":true,"properties":{"city":"West Palm Beach","name":"Costco Distribution Center","area":"Unknown","country":"United States","year_opened":null,"state":"Florida","postal_code":"33407","owner":"Costco","id":237,"street_address":"5851 45th Street","description":null}},{"geometry":{"type":"Point","coordinates":[-84.53,33.62]},"type":"Feature","id":"ad619a16e7","clipped":true,"properties":{"city":"Atlanta","name":"Costco Distribution Center","area":"Unknown","country":"United States","year_opened":null,"state":"Georgia","postal_code":"30349","owner":"Costco","id":238,"street_address":"4250 South Fulton Parkway","description":null}},{"geometry":{"type":"Point","coordinates":[-88.43,41.40]},"type":"Feature","id":"eb4d36fdda","clipped":true,"properties":{"city":"Morristown","name":"Costco Distribution Center","area":"Unknown","country":"United States","year_opened":null,"state":"Illinois","postal_code":"60450","owner":"Costco","id":239,"street_address":"3800 North Division Street","description":null}},{"geometry":{"type":"Point","coordinates":[-77.28,39.37]},"type":"Feature","id":"db8db19846","clipped":true,"properties":{"city":"Monrovia","name":"Costco Distribution Center","area":"Unknown","country":"United States","year_opened":null,"state":"Maryland","postal_code":"21770","owner":"Costco","id":240,"street_address":"5236 Intercoastal Drive","description":null}},{"geometry":{"type":"Point","coordinates":[-74.46,40.36]},"type":"Feature","id":"c8e82d6533","clipped":true,"properties":{"city":"Monroe","name":"Costco Distribution Center","area":"Unknown","country":"United States","year_opened":null,"state":"New Jersey","postal_code":"08831","owner":"Costco","id":241,"street_address":"Costco Drive","description":null}},{"geometry":{"type":"Point","coordinates":[-96.96,32.64]},"type":"Feature","id":"b37b52221d","clipped":true,"properties":{"city":"Dallas","name":"Costco Distribution Center","area":"Unknown","country":"United States","year_opened":null,"state":"Texas","postal_code":"75249","owner":"Costco","id":242,"street_address":"Florina Parkway","description":null}},{"geometry":{"type":"Point","coordinates":[-99.51,27.62]},"type":"Feature","id":"4a4d38b13b","clipped":true,"properties":{"city":"Laredo","name":"Costco Distribution Center","area":"Unknown","country":"United States","year_opened":null,"state":"Texas","postal_code":"78045","owner":"Costco","id":243,"street_address":"8510 El Gato Road","description":null}},{"geometry":{"type":"Point","coordinates":[-112.03,40.76]},"type":"Feature","id":"1e42f63f64","clipped":true,"properties":{"city":"Lake City","name":"Costco Distribution Center","area":"Unknown","country":"United States","year_opened":null,"state":"Utah","postal_code":"84104","owner":"Costco","id":244,"street_address":"5995 West 300 South","description":null}},{"geometry":{"type":"Point","coordinates":[-122.24,47.22]},"type":"Feature","id":"842ddfbe2b","clipped":true,"properties":{"city":"Sumner","name":"Costco Distribution Center","area":"Unknown","country":"United States","year_opened":null,"state":"Washington","postal_code":"98390","owner":"Costco","id":245,"street_address":"4000 142nd Avenue East","description":null}},{"geometry":{"type":"Point","coordinates":[-75.29,40.73]},"type":"Feature","id":"c965ab548f","clipped":true,"properties":{"city":"Easton","name":"Walgreen's Distribution Center","area":"Unknown","country":"United States","year_opened":null,"state":"Pennsylvania","postal_code":"18045","owner":"Walgreens","id":246,"street_address":"3850 Prologis Parkway","description":"Regional Full Case Warehouses; "}},{"geometry":{"type":"Point","coordinates":[-95.99,41.28]},"type":"Feature","id":"e8ff041619","clipped":true,"properties":{"city":"Omaha","name":"Walgreen's Distribution Center","area":"Unknown","country":"United States","year_opened":null,"state":"Nebraska","postal_code":"68104","owner":"Walgreens","id":247,"street_address":"5100 Lake Street","description":"Walgreens Distribution Center; "}},{"geometry":{"type":"Point","coordinates":[-82.58,34.63]},"type":"Feature","id":"38c1fc1447","clipped":true,"properties":{"city":"Williams","name":"Walgreen's Distribution Center","area":"Unknown","country":"United States","year_opened":null,"state":"South Carolina","postal_code":"29697","owner":"Walgreens","id":248,"street_address":"101 Alliance Parkway","description":"Walgreens Distribution Center; Anderson Distribution Center"}},{"geometry":{"type":"Point","coordinates":[-91.47,34.58]},"type":"Feature","id":"2b541f987e","clipped":true,"properties":{"city":"Stuttgart","name":"Walgreen's Distribution Center","area":"Unknown","country":"United States","year_opened":null,"state":"Arkansas","postal_code":"72160","owner":"Walgreens","id":249,"street_address":"1130 Commerce","description":"Walgreens E-Commerce Distribution Centers; East Coast DC"}},{"geometry":{"type":"Point","coordinates":[-75.38,40.68]},"type":"Feature","id":"b0f0a58b28","clipped":true,"properties":{"city":"Bethlehem","name":"Walgreen's Distribution Center","area":"Unknown","country":"United States","year_opened":null,"state":"Pennsylvania","postal_code":"18017","owner":"Walgreens","id":250,"street_address":"125 North Commerce Way","description":"Walgreens Distribution Center; "}},{"geometry":{"type":"Point","coordinates":[-93.53,45.19]},"type":"Feature","id":"51af54ab87","clipped":true,"properties":{"city":"Rogers","name":"Walgreen's Distribution Center","area":"Unknown","country":"United States","year_opened":null,"state":"Minnesota","postal_code":"55374","owner":"Walgreens","id":251,"street_address":"13201 Wilfred Lane North","description":"Regional Full Case Warehouses; "}},{"geometry":{"type":"Point","coordinates":[-80.26,26.91]},"type":"Feature","id":"56b6f4ad96","clipped":true,"properties":{"city":"Jupiter","name":"Walgreen's Distribution Center","area":"Unknown","country":"United States","year_opened":null,"state":"Florida","postal_code":"33478","owner":"Walgreens","id":252,"street_address":"15998 Walgreens Drive","description":"Walgreens Distribution Center; "}},{"geometry":{"type":"Point","coordinates":[-117.23,33.87]},"type":"Feature","id":"d856a4acff","clipped":true,"properties":{"city":"Moreno Valley","name":"Walgreen's Distribution Center","area":"Unknown","country":"United States","year_opened":null,"state":"California","postal_code":"92551","owner":"Walgreens","id":253,"street_address":"17500 North Perris Boulevard","description":"Walgreens Distribution Center; "}},{"geometry":{"type":"Point","coordinates":[-95.37,29.95]},"type":"Feature","id":"ce7e6db6ad","clipped":true,"properties":{"city":"Houston","name":"Walgreen's Distribution Center","area":"Unknown","country":"United States","year_opened":null,"state":"Texas","postal_code":"77032","owner":"Walgreens","id":254,"street_address":"1805 Greens Road","description":"Regional Full Case Warehouses; "}},{"geometry":{"type":"Point","coordinates":[-98.67,36.78]},"type":"Feature","id":"20cf3c7079","clipped":true,"properties":{"city":"Alva","name":"Walgreen's Distribution Center","area":"Unknown","country":"United States","year_opened":null,"state":"Oklahoma","postal_code":"73717","owner":"Walgreens","id":255,"street_address":"2020 6th Street","description":"Walgreens Distribution Center; c/o Laney & Duke, Puerto Rico Consolidation DC"}},{"geometry":{"type":"Point","coordinates":[-82.94,39.96]},"type":"Feature","id":"c3cdf4398b","clipped":true,"properties":{"city":"Bexley","name":"Walgreen's Distribution Center","area":"Unknown","country":"United States","year_opened":null,"state":"Ohio","postal_code":"43209","owner":"Walgreens","id":256,"street_address":"2370 East Main Street","description":"Walgreens Distribution Center; "}},{"geometry":{"type":"Point","coordinates":[-111.60,35.21]},"type":"Feature","id":"84a330ffc4","clipped":true,"properties":{"city":"Flagstaff","name":"Walgreen's Distribution Center","area":"Unknown","country":"United States","year_opened":null,"state":"Arizona","postal_code":"86004","owner":"Walgreens","id":257,"street_address":"2400 North Walgreen Boulevard","description":"Walgreens Distribution Center; "}},{"geometry":{"type":"Point","coordinates":[-81.41,28.46]},"type":"Feature","id":"15606a7511","clipped":true,"properties":{"city":"Orlando","name":"Walgreen's Distribution Center","area":"Unknown","country":"United States","year_opened":null,"state":"Florida","postal_code":"32809","owner":"Walgreens","id":258,"street_address":"2455 Premier Row","description":"Walgreens Distribution Center; "}},{"geometry":{"type":"Point","coordinates":[-119.47,39.52]},"type":"Feature","id":"ad964a1f0a","clipped":true,"properties":{"city":"Sparks","name":"Walgreen's Distribution Center","area":"Unknown","country":"United States","year_opened":null,"state":"Nevada","postal_code":"89434","owner":"Walgreens","id":259,"street_address":"2777 USA Parkway","description":"Walgreens E-Commerce Distribution Centers; GSI Commerce"}},{"geometry":{"type":"Point","coordinates":[-90.06,38.78]},"type":"Feature","id":"ad22b96bd7","clipped":true,"properties":{"city":"Roseau","name":"Walgreen's Distribution Center","area":"Unknown","country":"United States","year_opened":null,"state":"Illinois","postal_code":"62084","owner":"Walgreens","id":260,"street_address":"28 Gateway Commerce Center Drive East","description":"Walgreens E-Commerce Distribution Centers; Walgreens Internet Fulfillment Centers"}},{"geometry":{"type":"Point","coordinates":[-83.54,41.57]},"type":"Feature","id":"5b2178d1b2","clipped":true,"properties":{"city":"Perry","name":"Walgreen's Distribution Center","area":"Unknown","country":"United States","year_opened":null,"state":"Ohio","postal_code":"43551","owner":"Walgreens","id":261,"street_address":"28727 Oregon Road","description":"Walgreens Distribution Center; "}},{"geometry":{"type":"Point","coordinates":[-83.60,34.20]},"type":"Feature","id":"28f9127799","clipped":true,"properties":{"city":"Ranger","name":"Walgreen's Distribution Center","area":"Unknown","country":"United States","year_opened":null,"state":"Georgia","postal_code":"30567","owner":"Walgreens","id":262,"street_address":"350 Raco Parkway","description":"Regional Full Case Warehouses; "}},{"geometry":{"type":"Point","coordinates":[-88.08,41.67]},"type":"Feature","id":"1da7c2d410","clipped":true,"properties":{"city":"Bolingbrook","name":"Walgreen's Distribution Center","area":"Unknown","country":"United States","year_opened":null,"state":"Illinois","postal_code":"60440","owner":"Walgreens","id":263,"street_address":"370 West Crossroads Parkway","description":"Walgreens Distribution Center; \"New Store Openings\""}},{"geometry":{"type":"Point","coordinates":[-80.28,33.22]},"type":"Feature","id":"1c1fe2e3ec","clipped":true,"properties":{"city":"Ida Grove","name":"Walgreen's Distribution Center","area":"Unknown","country":"United States","year_opened":null,"state":"South Carolina","postal_code":"29472","owner":"Walgreens","id":264,"street_address":"4400 State Road","description":"Walgreens Distribution Center; "}},{"geometry":{"type":"Point","coordinates":[-73.92,40.73]},"type":"Feature","id":"f840f75e6f","clipped":true,"properties":{"city":"Queens","name":"Walgreen's Distribution Center","area":"Unknown","country":"United States","year_opened":null,"state":"New York","postal_code":"11378","owner":"Walgreens","id":265,"street_address":"50-02 55th Avenue","description":"Walgreens Distribution Center; DuaneReade Distribution Center"}},{"geometry":{"type":"Point","coordinates":[-87.90,41.89]},"type":"Feature","id":"344a36c95b","clipped":true,"properties":{"city":"Berkeley","name":"Walgreen's Distribution Center","area":"Unknown","country":"United States","year_opened":null,"state":"Illinois","postal_code":"60163","owner":"Walgreens","id":266,"street_address":"5300 Saint Charles Road","description":"Walgreens Distribution Center; "}},{"geometry":{"type":"Point","coordinates":[-96.87,32.43]},"type":"Feature","id":"a2a012b400","clipped":true,"properties":{"city":"Whitefield","name":"Walgreen's Distribution Center","area":"Unknown","country":"United States","year_opened":null,"state":"Texas","postal_code":"75167","owner":"Walgreens","id":267,"street_address":"710 Ovilla Road","description":"Walgreens Distribution Center; "}},{"geometry":{"type":"Point","coordinates":[-81.09,40.73]},"type":"Feature","id":"7878741482","clipped":true,"properties":{"city":"Minerva","name":"Walgreen's Distribution Center","area":"Unknown","country":"United States","year_opened":null,"state":"Ohio","postal_code":"44657","owner":"Walgreens","id":268,"street_address":"730 U.S. 30","description":"Walgreens Distribution Center; Walgreens Return Center"}},{"geometry":{"type":"Point","coordinates":[-80.34,26.13]},"type":"Feature","id":"b8149b6f47","clipped":true,"properties":{"city":"Sunrise","name":"Walgreen's Distribution Center","area":"Unknown","country":"United States","year_opened":null,"state":"Florida","postal_code":"33325","owner":"Walgreens","id":269,"street_address":"80 International Parkway","description":"Walgreens Distribution Center; "}},{"geometry":{"type":"Point","coordinates":[-112.42,33.41]},"type":"Feature","id":"40901f0d01","clipped":true,"properties":{"city":"Goodyear","name":"Amazon Distribution Center #PHX5","area":"Unknown","country":"United States","year_opened":null,"state":"Arizona","postal_code":"85338","owner":"Amazon","id":270,"street_address":"16920 West Commerce Drive","description":null}},{"geometry":{"type":"Point","coordinates":[-112.16,33.43]},"type":"Feature","id":"a6017da258","clipped":true,"properties":{"city":"Phoenix","name":"Amazon Distribution Center #PHX6","area":"Unknown","country":"United States","year_opened":null,"state":"Arizona","postal_code":"85043","owner":"Amazon","id":271,"street_address":"4750 West Mohave Street","description":null}},{"geometry":{"type":"Point","coordinates":[-112.21,33.43]},"type":"Feature","id":"4af66ff0b3","clipped":true,"properties":{"city":"Phoenix","name":"Amazon Distribution Center #PHX3","area":"Unknown","country":"United States","year_opened":null,"state":"Arizona","postal_code":"85043","owner":"Amazon","id":272,"street_address":"6835 West Buckeye Road","description":null}},{"geometry":{"type":"Point","coordinates":[-112.22,33.46]},"type":"Feature","id":"093e66cafa","clipped":true,"properties":{"city":"Phoenix","name":"Amazon Distribution Center #PHX7","area":"Unknown","country":"United States","year_opened":null,"state":"Arizona","postal_code":"85043","owner":"Amazon","id":273,"street_address":"800 North 75th Avenue","description":null}},{"geometry":{"type":"Point","coordinates":[-117.25,34.09]},"type":"Feature","id":"a28fc1f019","clipped":true,"properties":{"city":"San Bernardino","name":"Amazon Distribution Center #ONT2","area":"Unknown","country":"United States","year_opened":null,"state":"California","postal_code":"92408","owner":"Amazon","id":274,"street_address":"1910 East Central Avenue","description":null}},{"geometry":{"type":"Point","coordinates":[-121.16,37.47]},"type":"Feature","id":"f9e5208630","clipped":true,"properties":{"city":"Patterson","name":"Amazon Distribution Center #OAK3","area":"Unknown","country":"United States","year_opened":null,"state":"California","postal_code":"95363","owner":"Amazon","id":275,"street_address":"Park Center Drive","description":null}},{"geometry":{"type":"Point","coordinates":[-121.25,37.92]},"type":"Feature","id":"188df60d40","clipped":true,"properties":{"city":"Stockton","name":"Amazon Distribution Center ","area":"Unknown","country":"United States","year_opened":null,"state":"California","postal_code":"95206","owner":"Amazon","id":276,"street_address":"1909 Zephyr Street","description":null}},{"geometry":{"type":"Point","coordinates":[-121.40,37.75]},"type":"Feature","id":"1ab07f1e03","clipped":true,"properties":{"city":"Tracy","name":"Amazon Distribution Center #OAK4","area":"Unknown","country":"United States","year_opened":null,"state":"California","postal_code":"95376","owner":"Amazon","id":277,"street_address":"1555 Chrisman Road","description":null}},{"geometry":{"type":"Point","coordinates":[-75.59,39.66]},"type":"Feature","id":"51d2354d90","clipped":true,"properties":{"city":"New Castle","name":"Amazon Distribution Center #PHL1","area":"Unknown","country":"United States","year_opened":null,"state":"Delaware","postal_code":"19720","owner":"Amazon","id":278,"street_address":"1 Centerpoint Boulevard","description":null}},{"geometry":{"type":"Point","coordinates":[-75.59,39.66]},"type":"Feature","id":"6974d7c84f","clipped":true,"properties":{"city":"New Castle","name":"Amazon Distribution Center #PHL3","area":"Unknown","country":"United States","year_opened":null,"state":"Delaware","postal_code":"19720","owner":"Amazon","id":279,"street_address":"1600 Johnson Way","description":null}},{"geometry":{"type":"Point","coordinates":[-75.74,39.44]},"type":"Feature","id":"563345ce24","clipped":true,"properties":{"city":"Middletown","name":"Amazon Distribution Center #PHL7","area":"Unknown","country":"United States","year_opened":null,"state":"Delaware","postal_code":"19709","owner":"Amazon","id":280,"street_address":"560 Merrimac Avenue","description":null}},{"geometry":{"type":"Point","coordinates":[-75.72,39.46]},"type":"Feature","id":"dec1bdf835","clipped":true,"properties":{"city":"Middletown","name":"Amazon Distribution Center #PHL8","area":"Unknown","country":"United States","year_opened":null,"state":"Delaware","postal_code":"19709","owner":"Amazon","id":281,"street_address":"727 North Broad Street","description":null}},{"geometry":{"type":"Point","coordinates":[-85.73,38.29]},"type":"Feature","id":"f6ae683693","clipped":true,"properties":{"city":"Jefferson","name":"Amazon Distribution Center #IND6","area":"Unknown","country":"United States","year_opened":null,"state":"Indiana","postal_code":"47130","owner":"Amazon","id":282,"street_address":"1453 East 10th Street","description":null}},{"geometry":{"type":"Point","coordinates":[-86.38,39.98]},"type":"Feature","id":"f3c7f7d3da","clipped":true,"properties":{"city":"Stow","name":"Amazon Distribution Center #IND1","area":"Unknown","country":"United States","year_opened":null,"state":"Indiana","postal_code":"46075","owner":"Amazon","id":283,"street_address":"4255 Anson Boulevard","description":null}},{"geometry":{"type":"Point","coordinates":[-86.38,39.97]},"type":"Feature","id":"ff7b191e1d","clipped":true,"properties":{"city":"Estherville","name":"Amazon Distribution Center #XUSE","area":"Unknown","country":"United States","year_opened":null,"state":"Indiana","postal_code":"46075","owner":"Amazon","id":284,"street_address":"5100 South Indianapolis Road","description":null}},{"geometry":{"type":"Point","coordinates":[-86.29,39.76]},"type":"Feature","id":"ddff7a6373","clipped":true,"properties":{"city":"Indiana","name":"Amazon Distribution Center #IND4","area":"Unknown","country":"United States","year_opened":null,"state":"Indiana","postal_code":"46214","owner":"Amazon","id":285,"street_address":"710 South Girls School Road","description":null}},{"geometry":{"type":"Point","coordinates":[-86.34,39.70]},"type":"Feature","id":"dfc3f10c8a","clipped":true,"properties":{"city":"Plainfield","name":"Amazon Distribution Center #IND2","area":"Unknown","country":"United States","year_opened":null,"state":"Indiana","postal_code":"46168","owner":"Amazon","id":286,"street_address":"715 Airtech Parkway","description":null}},{"geometry":{"type":"Point","coordinates":[-86.36,39.70]},"type":"Feature","id":"ee7e286686","clipped":true,"properties":{"city":"Plainfield","name":"Amazon Distribution Center #IND5","area":"Unknown","country":"United States","year_opened":null,"state":"Indiana","postal_code":"46168","owner":"Amazon","id":287,"street_address":"800 Perry Road","description":null}},{"geometry":{"type":"Point","coordinates":[-85.69,38.38]},"type":"Feature","id":"24e3639b5f","clipped":true,"properties":{"city":"Jefferson","name":"Amazon Distribution Center #SDF8","area":"Unknown","country":"United States","year_opened":null,"state":"Indiana","postal_code":"47130","owner":"Amazon","id":288,"street_address":"900 Patrol Road","description":null}},{"geometry":{"type":"Point","coordinates":[-95.62,37.01]},"type":"Feature","id":"9768a6e1b5","clipped":true,"properties":{"city":"Coffeyville","name":"Amazon Distribution Center #TUL1","area":"Unknown","country":"United States","year_opened":null,"state":"Kansas","postal_code":"67337","owner":"Amazon","id":289,"street_address":"2654 U.S. 169","description":null}},{"geometry":{"type":"Point","coordinates":[-85.35,37.33]},"type":"Feature","id":"98082ca2ba","clipped":true,"properties":{"city":"Campbell","name":"Amazon Distribution Center #SDF1","area":"Unknown","country":"United States","year_opened":null,"state":"Kentucky","postal_code":"42718","owner":"Amazon","id":290,"street_address":"1105 South Columbia Avenue","description":null}},{"geometry":{"type":"Point","coordinates":[-85.69,38.20]},"type":"Feature","id":"a08e2f2ba8","clipped":true,"properties":{"city":"Louisville","name":"Amazon Distribution Center #SDF2","area":"Unknown","country":"United States","year_opened":null,"state":"Kentucky","postal_code":"40218","owner":"Amazon","id":291,"street_address":"4360 Robards Lane","description":null}},{"geometry":{"type":"Point","coordinates":[-84.71,39.08]},"type":"Feature","id":"3cb4f028d6","clipped":true,"properties":{"city":"Hebron","name":"Amazon Distribution Center #CVG1","area":"Unknown","country":"United States","year_opened":null,"state":"Kentucky","postal_code":"41048","owner":"Amazon","id":292,"street_address":"1155 Worldwide Boulevard","description":null}},{"geometry":{"type":"Point","coordinates":[-84.73,39.09]},"type":"Feature","id":"ca3ffc008a","clipped":true,"properties":{"city":"Hebron","name":"Amazon Distribution Center #CVG2","area":"Unknown","country":"United States","year_opened":null,"state":"Kentucky","postal_code":"41048","owner":"Amazon","id":293,"street_address":"1600 Worldwide Boulevard","description":null}},{"geometry":{"type":"Point","coordinates":[-84.72,39.06]},"type":"Feature","id":"4a8576a2bb","clipped":true,"properties":{"city":"Hebron","name":"Amazon Distribution Center #CVG3","area":"Unknown","country":"United States","year_opened":null,"state":"Kentucky","postal_code":"41048","owner":"Amazon","id":294,"street_address":"3680 Langley Drive","description":null}},{"geometry":{"type":"Point","coordinates":[-84.72,39.07]},"type":"Feature","id":"bb5c88624f","clipped":true,"properties":{"city":"Hebron","name":"Amazon Distribution Center #CVG5","area":"Unknown","country":"United States","year_opened":null,"state":"Kentucky","postal_code":"41048","owner":"Amazon","id":295,"street_address":"2285 Litton Lane","description":null}},{"geometry":{"type":"Point","coordinates":[-84.53,38.08]},"type":"Feature","id":"df70529fb9","clipped":true,"properties":{"city":"Lexington","name":"Amazon Distribution Center #LEX1","area":"Unknown","country":"United States","year_opened":null,"state":"Kentucky","postal_code":"40511","owner":"Amazon","id":296,"street_address":"1850 Mercer Road","description":null}},{"geometry":{"type":"Point","coordinates":[-84.55,38.07]},"type":"Feature","id":"c64bce1aa0","clipped":true,"properties":{"city":"Lexington","name":"Amazon Distribution Center #LEX2","area":"Unknown","country":"United States","year_opened":null,"state":"Kentucky","postal_code":"40511","owner":"Amazon","id":297,"street_address":"172 Trade Street","description":null}},{"geometry":{"type":"Point","coordinates":[-85.71,37.96]},"type":"Feature","id":"7b5443f834","clipped":true,"properties":{"city":"Ephrata","name":"Amazon Distribution Center #SDF4","area":"Unknown","country":"United States","year_opened":null,"state":"Kentucky","postal_code":"40165","owner":"Amazon","id":298,"street_address":"","description":null}},{"geometry":{"type":"Point","coordinates":[-85.68,37.97]},"type":"Feature","id":"8266219315","clipped":true,"properties":{"city":"Dansville","name":"Amazon Distribution Center #SDF6","area":"Unknown","country":"United States","year_opened":null,"state":"Kentucky","postal_code":"40165","owner":"Amazon","id":299,"street_address":"Omega Parkway","description":null}},{"geometry":{"type":"Point","coordinates":[-85.68,37.96]},"type":"Feature","id":"a54f18b562","clipped":true,"properties":{"city":"Ephrata","name":"Amazon Distribution Center #SDF7","area":"Unknown","country":"United States","year_opened":null,"state":"Kentucky","postal_code":"40165","owner":"Amazon","id":300,"street_address":"Omicron Court","description":null}},{"geometry":{"type":"Point","coordinates":[-85.72,37.99]},"type":"Feature","id":"830e693bd4","clipped":true,"properties":{"city":"Dansville","name":"Amazon Distribution Center #SDF9","area":"Unknown","country":"United States","year_opened":null,"state":"Kentucky","postal_code":"40165","owner":"Amazon","id":301,"street_address":"","description":null}},{"geometry":{"type":"Point","coordinates":[-119.21,39.61]},"type":"Feature","id":"c7975dbe74","clipped":true,"properties":{"city":"Fernley","name":"Amazon Distribution Center #RNO1","area":"Unknown","country":"United States","year_opened":null,"state":"Nevada","postal_code":"89408","owner":"Amazon","id":302,"street_address":"1600 East Newlands Road","description":null}},{"geometry":{"type":"Point","coordinates":[-115.11,36.23]},"type":"Feature","id":"0f739c7dfc","clipped":true,"properties":{"city":"Las Vegas","name":"Amazon Distribution Center #LAS2","area":"Unknown","country":"United States","year_opened":null,"state":"Nevada","postal_code":"89030","owner":"Amazon","id":303,"street_address":"3837 Bay Lake Trail","description":null}},{"geometry":{"type":"Point","coordinates":[-71.53,42.79]},"type":"Feature","id":"88eb362328","clipped":true,"properties":{"city":"Nashua","name":"Amazon Distribution Center #BOS1","area":"Unknown","country":"United States","year_opened":null,"state":"New Hampshire","postal_code":"03063","owner":"Amazon","id":304,"street_address":"10 State Street","description":null}},{"geometry":{"type":"Point","coordinates":[-74.25,40.58]},"type":"Feature","id":"70eafba526","clipped":true,"properties":{"city":"Lakehurst","name":"Amazon Distribution Center #EWR5","area":"Unknown","country":"United States","year_opened":null,"state":"New Jersey","postal_code":"07001","owner":"Amazon","id":305,"street_address":"301 Blair Road","description":null}},{"geometry":{"type":"Point","coordinates":[-76.05,40.92]},"type":"Feature","id":"ec60c7f834","clipped":true,"properties":{"city":"Hazleton","name":"Amazon Distribution Center #AVP1","area":"Unknown","country":"United States","year_opened":null,"state":"Pennsylvania","postal_code":"18202","owner":"Amazon","id":306,"street_address":"550 Oakridge Road","description":null}},{"geometry":{"type":"Point","coordinates":[-75.62,40.56]},"type":"Feature","id":"37ec6ac84f","clipped":true,"properties":{"city":"Breinigsville","name":"Amazon Distribution Center #ABE2","area":"Unknown","country":"United States","year_opened":null,"state":"Pennsylvania","postal_code":"18031","owner":"Amazon","id":307,"street_address":"705 Boulder Drive","description":null}},{"geometry":{"type":"Point","coordinates":[-75.62,40.56]},"type":"Feature","id":"46505a6637","clipped":true,"properties":{"city":"Breinigsville","name":"Amazon Distribution Center #ABE3","area":"Unknown","country":"United States","year_opened":null,"state":"Pennsylvania","postal_code":"18031","owner":"Amazon","id":308,"street_address":"650 Boulder Drive","description":null}},{"geometry":{"type":"Point","coordinates":[-76.77,40.33]},"type":"Feature","id":"16144906ee","clipped":true,"properties":{"city":"Harrisburg","name":"Amazon Distribution Center #ABE5","area":"Unknown","country":"United States","year_opened":null,"state":"Pennsylvania","postal_code":"17112","owner":"Amazon","id":309,"street_address":"6455 Allentown Boulevard","description":null}},{"geometry":{"type":"Point","coordinates":[-76.84,40.17]},"type":"Feature","id":"3aaeebeb1c","clipped":true,"properties":{"city":null,"name":"Amazon Distribution Center #PHL5","area":"Unknown","country":"United States","year_opened":null,"state":"Pennsylvania","postal_code":"17339","owner":"Amazon","id":310,"street_address":"500 McCarthy Drive","description":null}},{"geometry":{"type":"Point","coordinates":[-77.23,40.18]},"type":"Feature","id":"1d8b050d5d","clipped":true,"properties":{"city":"Caribou","name":"Amazon Distribution Center #PHL6","area":"Unknown","country":"United States","year_opened":null,"state":"Pennsylvania","postal_code":"17015","owner":"Amazon","id":311,"street_address":"675 Allen Road","description":null}},{"geometry":{"type":"Point","coordinates":[-77.11,40.23]},"type":"Feature","id":"298376faf2","clipped":true,"properties":{"city":"Caribou","name":"Amazon Distribution Center #PHL4","area":"Unknown","country":"United States","year_opened":null,"state":"Pennsylvania","postal_code":"17015","owner":"Amazon","id":312,"street_address":"21 Roadway Drive","description":null}},{"geometry":{"type":"Point","coordinates":[-75.60,41.44]},"type":"Feature","id":"04b44848cd","clipped":true,"properties":{"city":"Scranton","name":"Amazon Distribution Center #VUBA","area":"Unknown","country":"United States","year_opened":null,"state":"Pennsylvania","postal_code":"18512","owner":"Amazon","id":313,"street_address":"1000 Keystone Industrial Park Road","description":null}},{"geometry":{"type":"Point","coordinates":[-75.80,41.33]},"type":"Feature","id":"e34a3d0f01","clipped":true,"properties":{"city":"Pittston","name":"Amazon Distribution Center #VUGA","area":"Unknown","country":"United States","year_opened":null,"state":"Pennsylvania","postal_code":"18643","owner":"Amazon","id":314,"street_address":"508 Delaware Avenue","description":null}},{"geometry":{"type":"Point","coordinates":[-77.23,40.19]},"type":"Feature","id":"0cd3224665","clipped":true,"properties":{"city":"Caribou","name":"Amazon Distribution Center #XUSC","area":"Unknown","country":"United States","year_opened":null,"state":"Pennsylvania","postal_code":"17013","owner":"Amazon","id":315,"street_address":"40 Logistics Drive","description":null}},{"geometry":{"type":"Point","coordinates":[-82.03,35.01]},"type":"Feature","id":"61ac516d39","clipped":true,"properties":{"city":"Spartanburg","name":"Amazon Distribution Center #GSP1","area":"Unknown","country":"United States","year_opened":null,"state":"South Carolina","postal_code":"29303","owner":"Amazon","id":316,"street_address":"402 John Dodd Road","description":null}},{"geometry":{"type":"Point","coordinates":[-81.05,33.91]},"type":"Feature","id":"cbe4825ec3","clipped":true,"properties":{"city":"Columbia","name":"Amazon Distribution Center ","area":"Unknown","country":"United States","year_opened":null,"state":"South Carolina","postal_code":"29172","owner":"Amazon","id":317,"street_address":"4400 12th Street Extension","description":null}},{"geometry":{"type":"Point","coordinates":[-81.05,33.91]},"type":"Feature","id":"cbe4825ec3","clipped":true,"properties":{"city":"Columbia","name":"Amazon Distribution Center #CAE1","area":"Unknown","country":"United States","year_opened":null,"state":"South Carolina","postal_code":"29172","owner":"Amazon","id":318,"street_address":"4400 12th Street Extension","description":null}},{"geometry":{"type":"Point","coordinates":[-85.14,35.07]},"type":"Feature","id":"ba530e4211","clipped":true,"properties":{"city":"Ogallala","name":"Amazon Distribution Center #CHA1","area":"Unknown","country":"United States","year_opened":null,"state":"Tennessee","postal_code":"37421","owner":"Amazon","id":319,"street_address":"7200 Discovery Drive","description":null}},{"geometry":{"type":"Point","coordinates":[-86.36,35.78]},"type":"Feature","id":"d80124e19a","clipped":true,"properties":{"city":"Murfreesboro","name":"Amazon Distribution Center #BNA3","area":"Unknown","country":"United States","year_opened":null,"state":"Tennessee","postal_code":"37127","owner":"Amazon","id":320,"street_address":"2020 Joe B Jackson Parkway","description":null}},{"geometry":{"type":"Point","coordinates":[-86.41,36.13]},"type":"Feature","id":"d1a08288df","clipped":true,"properties":{"city":"Lebanon","name":"Amazon Distribution Center #BNA1","area":"Unknown","country":"United States","year_opened":null,"state":"Tennessee","postal_code":"37090","owner":"Amazon","id":321,"street_address":"14840 Central Pike","description":null}},{"geometry":{"type":"Point","coordinates":[-84.81,35.28]},"type":"Feature","id":"054f26fb26","clipped":true,"properties":{"city":"Charleston","name":"Amazon Distribution Center #CHA2","area":"Unknown","country":"United States","year_opened":null,"state":"Tennessee","postal_code":"37310","owner":"Amazon","id":322,"street_address":"225 Infinity Drive","description":null}},{"geometry":{"type":"Point","coordinates":[-86.41,36.13]},"type":"Feature","id":"623465a697","clipped":true,"properties":{"city":"Mount Juliet","name":"Amazon Distribution Center #BNA2","area":"Unknown","country":"United States","year_opened":null,"state":"Tennessee","postal_code":"37122","owner":"Amazon","id":323,"street_address":"Duke Drive","description":null}},{"geometry":{"type":"Point","coordinates":[-98.29,29.60]},"type":"Feature","id":"4d1b3537c1","clipped":true,"properties":{"city":"Schertz","name":"Amazon Distribution Center #SAT1","area":"Unknown","country":"United States","year_opened":null,"state":"Texas","postal_code":"78154","owner":"Amazon","id":324,"street_address":"6000 Enterprise Avenue","description":null}},{"geometry":{"type":"Point","coordinates":[-97.02,32.96]},"type":"Feature","id":"bcac928ae9","clipped":true,"properties":{"city":"Coppell","name":"Amazon Distribution Center #DFW6","area":"Unknown","country":"United States","year_opened":null,"state":"Texas","postal_code":"75019","owner":"Amazon","id":325,"street_address":"940 West Bethel Road","description":null}},{"geometry":{"type":"Point","coordinates":[-97.33,32.97]},"type":"Feature","id":"ef4c027fbf","clipped":true,"properties":{"city":"Fort Worth","name":"Amazon Distribution Center #DFW7","area":"Unknown","country":"United States","year_opened":null,"state":"Texas","postal_code":"76177","owner":"Amazon","id":326,"street_address":"700 Westport Parkway","description":null}},{"geometry":{"type":"Point","coordinates":[-97.04,32.82]},"type":"Feature","id":"15db472df6","clipped":true,"properties":{"city":"Fort Worth","name":"Amazon Distribution Center #XUSB","area":"Unknown","country":"United States","year_opened":null,"state":"Texas","postal_code":"76155","owner":"Amazon","id":327,"street_address":"14900 Frye Road","description":null}},{"geometry":{"type":"Point","coordinates":[-97.04,32.90]},"type":"Feature","id":"43bc0a7d27","clipped":true,"properties":{"city":null,"name":"Amazon Distribution Center #DFW1","area":"Unknown","country":"United States","year_opened":null,"state":"Texas","postal_code":"75261","owner":"Amazon","id":328,"street_address":"3200 East Airfield Drive","description":null}},{"geometry":{"type":"Point","coordinates":[-77.44,37.36]},"type":"Feature","id":"e4f4398674","clipped":true,"properties":{"city":"Chester","name":"Amazon Distribution Center #RIC1","area":"Unknown","country":"United States","year_opened":null,"state":"Virginia","postal_code":"23831","owner":"Amazon","id":329,"street_address":"9827 Petersburg Street","description":null}},{"geometry":{"type":"Point","coordinates":[-77.33,37.35]},"type":"Feature","id":"5e38c24260","clipped":true,"properties":{"city":"Chester","name":"Amazon Distribution Center #RIC2","area":"Unknown","country":"United States","year_opened":null,"state":"Virginia","postal_code":"23836","owner":"Amazon","id":330,"street_address":"1901 Meadowville Technology Parkway","description":null}},{"geometry":{"type":"Point","coordinates":[-122.24,47.24]},"type":"Feature","id":"c35c75b5b3","clipped":true,"properties":{"city":"Sumner","name":"Amazon Distribution Center #BFI1","area":"Unknown","country":"United States","year_opened":null,"state":"Washington","postal_code":"98390","owner":"Amazon","id":331,"street_address":"1800 140th Avenue East","description":null}},{"geometry":{"type":"Point","coordinates":[-122.18,47.62]},"type":"Feature","id":"9ae974477d","clipped":true,"properties":{"city":"Bellevue","name":"Amazon Distribution Center #SEA6 & #SEA8","area":"Unknown","country":"United States","year_opened":null,"state":"Washington","postal_code":"98005","owner":"Amazon","id":332,"street_address":"1227 124th Avenue Northeast","description":null}},{"geometry":{"type":"Point","coordinates":[-122.65,47.09]},"type":"Feature","id":"ff2b6b9617","clipped":true,"properties":{"city":"DuPont","name":"Amazon Distribution Center #BFI3","area":"Unknown","country":"United States","year_opened":null,"state":"Washington","postal_code":"98327","owner":"Amazon","id":333,"street_address":"2700 Center Drive","description":null}},{"geometry":{"type":"Point","coordinates":[-122.30,47.58]},"type":"Feature","id":"1fb3de4a1c","clipped":true,"properties":{"city":"Seattle","name":"Amazon Distribution Center #SEA6","area":"Unknown","country":"United States","year_opened":null,"state":"Washington","postal_code":"98144","owner":"Amazon","id":334,"street_address":"2646 Rainier Avenue South","description":null}},{"geometry":{"type":"Point","coordinates":[-122.95,49.16]},"type":"Feature","id":"696adc314d","clipped":true,"properties":{"city":"Delta","name":"Amazon Distribution Center #YVR2","area":"Unknown","country":"Canada","year_opened":null,"state":"British Columbia","postal_code":"V3M","owner":"Amazon","id":335,"street_address":"450 Derwent Place","description":null}},{"geometry":{"type":"Point","coordinates":[-79.74,43.59]},"type":"Feature","id":"66ed6b13d1","clipped":true,"properties":{"city":"Mississauga","name":"Amazon Distribution Center #YYZ1","area":"Unknown","country":"Canada","year_opened":null,"state":"Ontario","postal_code":"L5N","owner":"Amazon","id":336,"street_address":"6363 Millcreek Drive","description":null}},{"geometry":{"type":"Point","coordinates":[-79.69,43.62]},"type":"Feature","id":"d2043f514a","clipped":true,"properties":{"city":"Mississauga","name":"Amazon Distribution Center #PRTO","area":"Unknown","country":"Canada","year_opened":null,"state":"Ontario","postal_code":"L5R","owner":"Amazon","id":337,"street_address":"6110 Cantay Road","description":null}},{"geometry":{"type":"Point","coordinates":[-87.03,33.32]},"type":"Feature","id":"bd5f3d3a2f","clipped":true,"properties":{"city":"McCall","name":"Home Depot Rapid Deployment Center","area":"Unknown","country":"United States","year_opened":null,"state":"Alabama","postal_code":"35111","owner":"Home Depot","id":338,"street_address":"6400 Jefferson Metro Parkway","description":""}},{"geometry":{"type":"Point","coordinates":[-112.21,33.44]},"type":"Feature","id":"f5954d54c6","clipped":true,"properties":{"city":"Phoenix","name":"Home Depot Distribution Center","area":"Unknown","country":"United States","year_opened":null,"state":"Arizona","postal_code":"85043","owner":"Home Depot","id":339,"street_address":"7200 West Buckeye Road","description":""}},{"geometry":{"type":"Point","coordinates":[-112.25,33.45]},"type":"Feature","id":"55fdaed4bd","clipped":true,"properties":{"city":"Tolleson","name":"Home Depot Rapid Deployment Center","area":"Unknown","country":"United States","year_opened":null,"state":"Arizona","postal_code":"85353","owner":"Home Depot","id":340,"street_address":"9081 West Washington Street","description":""}},{"geometry":{"type":"Point","coordinates":[-112.18,33.45]},"type":"Feature","id":"42662e29ca","clipped":true,"properties":{"city":"Phoenix","name":"Home Depot Distribution Center","area":"Unknown","country":"United States","year_opened":null,"state":"Arizona","postal_code":"85043","owner":"Home Depot","id":341,"street_address":"300 South 55th Avenue","description":""}},{"geometry":{"type":"Point","coordinates":[-117.54,34.04]},"type":"Feature","id":"ad00ddbea4","clipped":true,"properties":{"city":"Ontario","name":"Home Depot Distribution Center","area":"Unknown","country":"United States","year_opened":null,"state":"California","postal_code":"91761","owner":"Home Depot","id":342,"street_address":"5450 East Francis Street","description":""}},{"geometry":{"type":"Point","coordinates":[-118.02,33.89]},"type":"Feature","id":"bf70022302","clipped":true,"properties":{"city":"Chincoteague","name":"Home Depot Distribution Center","area":"Unknown","country":"United States","year_opened":null,"state":"California","postal_code":"90650","owner":"Home Depot","id":343,"street_address":"14659 Alondra Boulevard","description":""}},{"geometry":{"type":"Point","coordinates":[-121.99,37.51]},"type":"Feature","id":"248889f70b","clipped":true,"properties":{"city":"Fremont","name":"Home Depot Distribution Center","area":"Unknown","country":"United States","year_opened":null,"state":"California","postal_code":"94538","owner":"Home Depot","id":344,"street_address":"Encyclopedia Circle","description":""}},{"geometry":{"type":"Point","coordinates":[-117.56,34.10]},"type":"Feature","id":"a5158cf845","clipped":true,"properties":{"city":"Rancho Cucamonga","name":"Home Depot Distribution Center","area":"Unknown","country":"United States","year_opened":null,"state":"California","postal_code":"91730","owner":"Home Depot","id":345,"street_address":"8535 Oakwood Place","description":""}},{"geometry":{"type":"Point","coordinates":[-117.54,34.03]},"type":"Feature","id":"abd96d38f9","clipped":true,"properties":{"city":"Mira Loma","name":"Home Depot Distribution Center","area":"Unknown","country":"United States","year_opened":null,"state":"California","postal_code":"91752","owner":"Home Depot","id":346,"street_address":"11650 Venture Drive","description":""}},{"geometry":{"type":"Point","coordinates":[-117.53,34.07]},"type":"Feature","id":"30989af827","clipped":true,"properties":{"city":"Ontario","name":"Home Depot Rapid Deployment Center","area":"Unknown","country":"United States","year_opened":null,"state":"California","postal_code":"91764","owner":"Home Depot","id":347,"street_address":"5655 Ontario Mills Parkway","description":""}},{"geometry":{"type":"Point","coordinates":[-121.40,37.76]},"type":"Feature","id":"e77f6435e9","clipped":true,"properties":{"city":"Tracy","name":"Home Depot Rapid Deployment Center","area":"Unknown","country":"United States","year_opened":null,"state":"California","postal_code":"95304","owner":"Home Depot","id":348,"street_address":"1400 East Pescadero Avenue","description":""}},{"geometry":{"type":"Point","coordinates":[-118.26,33.82]},"type":"Feature","id":"8135ebc274","clipped":true,"properties":{"city":"Carson","name":"Home Depot Distribution Center","area":"Unknown","country":"United States","year_opened":null,"state":"California","postal_code":"90745","owner":"Home Depot","id":349,"street_address":"771 East Watson Center Road","description":"Long Beach Transload Facility"}},{"geometry":{"type":"Point","coordinates":[-117.20,34.09]},"type":"Feature","id":"b07164a4bb","clipped":true,"properties":{"city":"Redlands","name":"Home Depot Rapid Deployment Center","area":"Unknown","country":"United States","year_opened":null,"state":"California","postal_code":"92374","owner":"Home Depot","id":350,"street_address":"River Bluff Avenue","description":""}},{"geometry":{"type":"Point","coordinates":[-121.30,37.79]},"type":"Feature","id":"709ac444a3","clipped":true,"properties":{"city":"Lathrop","name":"Home Depot Distribution Center","area":"Unknown","country":"United States","year_opened":null,"state":"California","postal_code":"95330","owner":"Home Depot","id":351,"street_address":"18300 Harlan Road","description":""}},{"geometry":{"type":"Point","coordinates":[-118.21,33.85]},"type":"Feature","id":"7581033cf4","clipped":true,"properties":{"city":"Compton","name":"Home Depot Distribution Center","area":"Unknown","country":"United States","year_opened":null,"state":"California","postal_code":"90221","owner":"Home Depot","id":352,"street_address":"19710 South Susana Road","description":""}},{"geometry":{"type":"Point","coordinates":[-104.87,39.87]},"type":"Feature","id":"74b7c2a686","clipped":true,"properties":{"city":"Henderson","name":"Home Depot Distribution Center","area":"Unknown","country":"United States","year_opened":null,"state":"Colorado","postal_code":"80640","owner":"Home Depot","id":353,"street_address":"9410 Heinze Way","description":""}},{"geometry":{"type":"Point","coordinates":[-72.74,41.86]},"type":"Feature","id":"49c1911c2f","clipped":true,"properties":{"city":null,"name":"Home Depot Distribution Center","area":"Unknown","country":"United States","year_opened":null,"state":"Connecticut","postal_code":"06002","owner":"Home Depot","id":354,"street_address":"170 Highland Park Drive","description":""}},{"geometry":{"type":"Point","coordinates":[-80.36,25.79]},"type":"Feature","id":"dd3f9f506b","clipped":true,"properties":{"city":"Miami","name":"Home Depot Distribution Center","area":"Unknown","country":"United States","year_opened":null,"state":"Florida","postal_code":"33172","owner":"Home Depot","id":355,"street_address":"10205 Northwest 19th Street","description":"Miami Export Center"}},{"geometry":{"type":"Point","coordinates":[-80.14,26.27]},"type":"Feature","id":"1e35a8e470","clipped":true,"properties":{"city":"Pompano Beach","name":"Home Depot Distribution Center","area":"Unknown","country":"United States","year_opened":null,"state":"Florida","postal_code":"33064","owner":"Home Depot","id":356,"street_address":"2900 North Andrews Avenue Extension","description":""}},{"geometry":{"type":"Point","coordinates":[-82.53,28.03]},"type":"Feature","id":"43881ed34d","clipped":true,"properties":{"city":"Tampa","name":"Home Depot Distribution Center","area":"Unknown","country":"United States","year_opened":null,"state":"Florida","postal_code":"33634","owner":"Home Depot","id":357,"street_address":"8423 Sunstate Street","description":""}},{"geometry":{"type":"Point","coordinates":[-81.79,30.38]},"type":"Feature","id":"39715007f3","clipped":true,"properties":{"city":"Jackson","name":"Home Depot Distribution Center","area":"Unknown","country":"United States","year_opened":null,"state":"Florida","postal_code":"32219","owner":"Home Depot","id":358,"street_address":"4831 Bulls Bay Highway","description":""}},{"geometry":{"type":"Point","coordinates":[-81.90,28.08]},"type":"Feature","id":"ed48b85690","clipped":true,"properties":{"city":"Lakeland","name":"Home Depot Distribution Center","area":"Unknown","country":"United States","year_opened":null,"state":"Florida","postal_code":"33805","owner":"Home Depot","id":359,"street_address":"3010 Saddle Creek Road","description":""}},{"geometry":{"type":"Point","coordinates":[-84.20,33.41]},"type":"Feature","id":"a58546bfe3","clipped":true,"properties":{"city":"McDonough","name":"Home Depot Distribution Center","area":"Unknown","country":"United States","year_opened":null,"state":"Georgia","postal_code":"30253","owner":"Home Depot","id":360,"street_address":"180 Westridge Parkway","description":""}},{"geometry":{"type":"Point","coordinates":[-84.16,33.38]},"type":"Feature","id":"51f7927bb2","clipped":true,"properties":{"city":"McDonough","name":"Home Depot Distribution Center","area":"Unknown","country":"United States","year_opened":null,"state":"Georgia","postal_code":"30253","owner":"Home Depot","id":361,"street_address":"190 Greenwood Industrial Parkway","description":""}},{"geometry":{"type":"Point","coordinates":[-83.19,30.66]},"type":"Feature","id":"fbc5f98bb4","clipped":true,"properties":{"city":null,"name":"Home Depot Rapid Deployment Center","area":"Unknown","country":"United States","year_opened":null,"state":"Georgia","postal_code":"31636","owner":"Home Depot","id":362,"street_address":"6201 Peterson Road","description":""}},{"geometry":{"type":"Point","coordinates":[-83.93,33.98]},"type":"Feature","id":"e58a7becd0","clipped":true,"properties":{"city":"Dacula","name":"Home Depot Distribution Center","area":"Unknown","country":"United States","year_opened":null,"state":"Georgia","postal_code":"30019","owner":"Home Depot","id":363,"street_address":"155 Alcovy Ind Boulevard","description":""}},{"geometry":{"type":"Point","coordinates":[-81.20,32.16]},"type":"Feature","id":"e98c078473","clipped":true,"properties":{"city":"Savannah","name":"Home Depot Distribution Center","area":"Unknown","country":"United States","year_opened":null,"state":"Georgia","postal_code":"31407","owner":"Home Depot","id":364,"street_address":"125 Crossroads Parkway","description":""}},{"geometry":{"type":"Point","coordinates":[-88.14,41.44]},"type":"Feature","id":"9cf4d44062","clipped":true,"properties":{"city":"Elwood","name":"Home Depot Distribution Center","area":"Unknown","country":"United States","year_opened":null,"state":"Illinois","postal_code":"60421","owner":"Home Depot","id":365,"street_address":"Logistics Drive","description":""}},{"geometry":{"type":"Point","coordinates":[-88.14,41.44]},"type":"Feature","id":"9604225ae4","clipped":true,"properties":{"city":"Joliet","name":"Home Depot Rapid Deployment Center","area":"Unknown","country":"United States","year_opened":null,"state":"Illinois","postal_code":"60436","owner":"Home Depot","id":366,"street_address":"2950 Centerpoint Way","description":""}},{"geometry":{"type":"Point","coordinates":[-88.35,41.74]},"type":"Feature","id":"7b01ecc095","clipped":true,"properties":{"city":"Montgomery","name":"Home Depot Distribution Center","area":"Unknown","country":"United States","year_opened":null,"state":"Illinois","postal_code":"60538","owner":"Home Depot","id":367,"street_address":"1000 Knell Road","description":""}},{"geometry":{"type":"Point","coordinates":[-86.36,39.69]},"type":"Feature","id":"70cabd9169","clipped":true,"properties":{"city":"Plainfield","name":"Home Depot Distribution Center","area":"Unknown","country":"United States","year_opened":null,"state":"Indiana","postal_code":"46168","owner":"Home Depot","id":368,"street_address":"1390 Perry Road","description":""}},{"geometry":{"type":"Point","coordinates":[-95.70,38.97]},"type":"Feature","id":"0ca78582f2","clipped":true,"properties":{"city":"Topeka","name":"Home Depot Rapid Deployment Center","area":"Unknown","country":"United States","year_opened":null,"state":"Kansas","postal_code":"66609","owner":"Home Depot","id":369,"street_address":"5200 Southwest Wenger Street","description":""}},{"geometry":{"type":"Point","coordinates":[-90.42,30.52]},"type":"Feature","id":"af9eebd574","clipped":true,"properties":{"city":"Hammond","name":"Home Depot Distribution Center","area":"Unknown","country":"United States","year_opened":null,"state":"Louisiana","postal_code":"70401","owner":"Home Depot","id":370,"street_address":"835 Pride Drive","description":""}},{"geometry":{"type":"Point","coordinates":[-77.80,39.63]},"type":"Feature","id":"aae5a9ca0a","clipped":true,"properties":{"city":"Hagerstown","name":"Home Depot Distribution Center","area":"Unknown","country":"United States","year_opened":null,"state":"Maryland","postal_code":"21740","owner":"Home Depot","id":371,"street_address":"16500 Hunters Green Parkway","description":""}},{"geometry":{"type":"Point","coordinates":[-76.81,38.99]},"type":"Feature","id":"aa6abd2c38","clipped":true,"properties":{"city":"Alpine","name":"Home Depot Distribution Center","area":"Unknown","country":"United States","year_opened":null,"state":"Maryland","postal_code":"20769","owner":"Home Depot","id":372,"street_address":"7100 Holladay Tyler Road","description":""}},{"geometry":{"type":"Point","coordinates":[-71.17,42.20]},"type":"Feature","id":"8d7ddfc408","clipped":true,"properties":{"city":"Norwood","name":"Home Depot Distribution Center","area":"Unknown","country":"United States","year_opened":null,"state":"Massachusetts","postal_code":"02062","owner":"Home Depot","id":373,"street_address":"625 University Avenue","description":""}},{"geometry":{"type":"Point","coordinates":[-72.73,42.17]},"type":"Feature","id":"e6ca8576a2","clipped":true,"properties":{"city":"Westfield","name":"Home Depot Rapid Deployment Center","area":"Unknown","country":"United States","year_opened":null,"state":"Massachusetts","postal_code":"01085","owner":"Home Depot","id":374,"street_address":"Campanelli Drive","description":""}},{"geometry":{"type":"Point","coordinates":[-83.42,42.22]},"type":"Feature","id":"317a11f122","clipped":true,"properties":{"city":"Romulus","name":"Home Depot Distribution Center","area":"Unknown","country":"United States","year_opened":null,"state":"Michigan","postal_code":"48174","owner":"Home Depot","id":375,"street_address":"38481 Huron River Drive","description":""}},{"geometry":{"type":"Point","coordinates":[-93.21,44.98]},"type":"Feature","id":"88ebd3ca9e","clipped":true,"properties":{"city":"Minneapolis","name":"Home Depot Distribution Center","area":"Unknown","country":"United States","year_opened":null,"state":"Minnesota","postal_code":"55414","owner":"Home Depot","id":376,"street_address":"722 Kasota Circle Southeast","description":""}},{"geometry":{"type":"Point","coordinates":[-90.22,38.73]},"type":"Feature","id":"0f1b48d231","clipped":true,"properties":{"city":"St. Louis","name":"Home Depot Distribution Center","area":"Unknown","country":"United States","year_opened":null,"state":"Missouri","postal_code":"63137","owner":"Home Depot","id":377,"street_address":"9215 Riverview Drive","description":null}},{"geometry":{"type":"Point","coordinates":[-74.51,40.31]},"type":"Feature","id":"be8fe84892","clipped":true,"properties":{"city":"Cranbury","name":"Home Depot Distribution Center","area":"Unknown","country":"United States","year_opened":null,"state":"New Jersey","postal_code":"08512","owner":"Home Depot","id":378,"street_address":"61 North Station Road","description":""}},{"geometry":{"type":"Point","coordinates":[-74.45,40.39]},"type":"Feature","id":"9aaa38b8ed","clipped":true,"properties":{"city":"Brunswick","name":"Home Depot Distribution Center","area":"Unknown","country":"United States","year_opened":null,"state":"New Jersey","postal_code":"08816","owner":"Home Depot","id":379,"street_address":"130 Interstate Boulevard","description":""}},{"geometry":{"type":"Point","coordinates":[-74.48,40.37]},"type":"Feature","id":"7226a9837a","clipped":true,"properties":{"city":"Dayton","name":"Home Depot Distribution Center","area":"Unknown","country":"United States","year_opened":null,"state":"New Jersey","postal_code":"08810","owner":"Home Depot","id":380,"street_address":"130 Docks Corner Road","description":""}},{"geometry":{"type":"Point","coordinates":[-75.39,39.78]},"type":"Feature","id":"bc9740ae9b","clipped":true,"properties":{"city":"Swedesboro","name":"Home Depot Distribution Center","area":"Unknown","country":"United States","year_opened":null,"state":"New Jersey","postal_code":"08085","owner":"Home Depot","id":381,"street_address":"2359 Center Square Road","description":""}},{"geometry":{"type":"Point","coordinates":[-74.24,41.50]},"type":"Feature","id":"5a15299c45","clipped":true,"properties":{"city":"Montgomery","name":"Home Depot Distribution Center","area":"Unknown","country":"United States","year_opened":null,"state":"New York","postal_code":"12549","owner":"Home Depot","id":382,"street_address":"601 Neelytown Road","description":""}},{"geometry":{"type":"Point","coordinates":[-80.88,35.28]},"type":"Feature","id":"1550fa1551","clipped":true,"properties":{"city":"Charlotte","name":"Home Depot Distribution Center","area":"Unknown","country":"United States","year_opened":null,"state":"North Carolina","postal_code":"28216","owner":"Home Depot","id":383,"street_address":"501 Black Satchel Drive","description":""}},{"geometry":{"type":"Point","coordinates":[-81.47,41.38]},"type":"Feature","id":"b5d5fe423c","clipped":true,"properties":{"city":"Solon","name":"Home Depot Distribution Center","area":"Unknown","country":"United States","year_opened":null,"state":"Ohio","postal_code":"44139","owner":"Home Depot","id":384,"street_address":"30301 Carter Street","description":""}},{"geometry":{"type":"Point","coordinates":[-83.66,41.14]},"type":"Feature","id":"f008c5bdf4","clipped":true,"properties":{"city":"Van Buren","name":"Home Depot Rapid Deployment Center","area":"Unknown","country":"United States","year_opened":null,"state":"Ohio","postal_code":"45889","owner":"Home Depot","id":385,"street_address":"1980 Township Road 14","description":""}},{"geometry":{"type":"Point","coordinates":[-84.32,39.43]},"type":"Feature","id":"5a238e562e","clipped":true,"properties":{"city":"Monroe","name":"Home Depot Rapid Deployment Center","area":"Unknown","country":"United States","year_opened":null,"state":"Ohio","postal_code":"45050","owner":"Home Depot","id":386,"street_address":"500 Gateway Boulevard","description":""}},{"geometry":{"type":"Point","coordinates":[-122.96,44.90]},"type":"Feature","id":"71016a9bdf","clipped":true,"properties":{"city":"Salem","name":"Home Depot Rapid Deployment Center","area":"Unknown","country":"United States","year_opened":null,"state":"Oregon","postal_code":"97317","owner":"Home Depot","id":387,"street_address":"4999 Depot Court Southeast","description":""}},{"geometry":{"type":"Point","coordinates":[-75.76,41.32]},"type":"Feature","id":"34feae274d","clipped":true,"properties":{"city":"Pittston","name":"Home Depot Rapid Deployment Center","area":"Unknown","country":"United States","year_opened":null,"state":"Pennsylvania","postal_code":"18643","owner":"Home Depot","id":388,"street_address":"300 Enterprise Way","description":""}},{"geometry":{"type":"Point","coordinates":[-75.63,40.55]},"type":"Feature","id":"8aa9ef4b03","clipped":true,"properties":{"city":"Breinigsville","name":"Home Depot Rapid Deployment Center","area":"Unknown","country":"United States","year_opened":null,"state":"Pennsylvania","postal_code":"18031","owner":"Home Depot","id":389,"street_address":"Willard Drive","description":""}},{"geometry":{"type":"Point","coordinates":[-75.65,40.57]},"type":"Feature","id":"09bf1c06e7","clipped":true,"properties":{"city":"Breinigsville","name":"Home Depot Distribution Center","area":"Unknown","country":"United States","year_opened":null,"state":"Pennsylvania","postal_code":"18031","owner":"Home Depot","id":390,"street_address":"861 Nestle Way","description":""}},{"geometry":{"type":"Point","coordinates":[-81.07,33.91]},"type":"Feature","id":"78d0e082ae","clipped":true,"properties":{"city":"Columbia","name":"Home Depot Rapid Deployment Center","area":"Unknown","country":"United States","year_opened":null,"state":"South Carolina","postal_code":"29172","owner":"Home Depot","id":391,"street_address":"420 Foster Brothers Drive","description":""}},{"geometry":{"type":"Point","coordinates":[-87.01,35.67]},"type":"Feature","id":"b39c626557","clipped":true,"properties":{"city":"Columbia","name":"Home Depot Distribution Center","area":"Unknown","country":"United States","year_opened":null,"state":"Tennessee","postal_code":"38401","owner":"Home Depot","id":392,"street_address":"1701 North Claton Drive","description":""}},{"geometry":{"type":"Point","coordinates":[-96.85,32.63]},"type":"Feature","id":"b3b9ccecd5","clipped":true,"properties":{"city":"Dallas","name":"Home Depot Distribution Center","area":"Unknown","country":"United States","year_opened":null,"state":"Texas","postal_code":"75232","owner":"Home Depot","id":393,"street_address":"2320 Beckleymeade Avenue","description":""}},{"geometry":{"type":"Point","coordinates":[-96.47,32.12]},"type":"Feature","id":"17a0cd5754","clipped":true,"properties":{"city":"Corsicana","name":"Home Depot Distribution Center","area":"Unknown","country":"United States","year_opened":null,"state":"Texas","postal_code":"75110","owner":"Home Depot","id":394,"street_address":"2200 Business Interstate 45-F","description":""}},{"geometry":{"type":"Point","coordinates":[-96.85,32.63]},"type":"Feature","id":"835b95a073","clipped":true,"properties":{"city":"Dallas","name":"Home Depot Rapid Deployment Center","area":"Unknown","country":"United States","year_opened":null,"state":"Texas","postal_code":"75232","owner":"Home Depot","id":395,"street_address":"2315 Danieldale Road","description":""}},{"geometry":{"type":"Point","coordinates":[-95.40,29.96]},"type":"Feature","id":"14b0dc044e","clipped":true,"properties":{"city":"Houston","name":"Home Depot Rapid Deployment Center","area":"Unknown","country":"United States","year_opened":null,"state":"Texas","postal_code":"77060","owner":"Home Depot","id":396,"street_address":"18100 Chisholm Trail","description":""}},{"geometry":{"type":"Point","coordinates":[-97.02,32.73]},"type":"Feature","id":"8b667df95b","clipped":true,"properties":{"city":"Rice Lake","name":"Home Depot Distribution Center","area":"Unknown","country":"United States","year_opened":null,"state":"Texas","postal_code":"75051","owner":"Home Depot","id":397,"street_address":"1102 Highway 161","description":""}},{"geometry":{"type":"Point","coordinates":[-94.92,29.73]},"type":"Feature","id":"0deb6a5d5a","clipped":true,"properties":{"city":"Baytown","name":"Home Depot Distribution Center","area":"Unknown","country":"United States","year_opened":null,"state":"Texas","postal_code":"77523","owner":"Home Depot","id":398,"street_address":"6115 FM 1405 Road","description":""}},{"geometry":{"type":"Point","coordinates":[-98.44,29.54]},"type":"Feature","id":"c4bc0f84b1","clipped":true,"properties":{"city":"San Antonio","name":"Home Depot Distribution Center","area":"Unknown","country":"United States","year_opened":null,"state":"Texas","postal_code":"78217","owner":"Home Depot","id":399,"street_address":"10815 Sentinel Street","description":""}},{"geometry":{"type":"Point","coordinates":[-95.53,29.92]},"type":"Feature","id":"327ce501b0","clipped":true,"properties":{"city":"Houston","name":"Home Depot Rapid Deployment Center","area":"Unknown","country":"United States","year_opened":null,"state":"Texas","postal_code":"77064","owner":"Home Depot","id":400,"street_address":"8103 Fallbrook Drive","description":""}},{"geometry":{"type":"Point","coordinates":[-111.99,41.07]},"type":"Feature","id":"057a87f9fd","clipped":true,"properties":{"city":"Layton","name":"Home Depot Distribution Center","area":"Unknown","country":"United States","year_opened":null,"state":"Utah","postal_code":"84041","owner":"Home Depot","id":401,"street_address":"1101 Industrial Park Drive","description":""}},{"geometry":{"type":"Point","coordinates":[-78.14,39.20]},"type":"Feature","id":"e1a0b93cea","clipped":true,"properties":{"city":"Estherville","name":"Home Depot Rapid Deployment Center","area":"Unknown","country":"United States","year_opened":null,"state":"Virginia","postal_code":"22603","owner":"Home Depot","id":402,"street_address":"480 Park Center Drive","description":""}},{"geometry":{"type":"Point","coordinates":[-78.15,39.08]},"type":"Feature","id":"6d73e15ca6","clipped":true,"properties":{"city":"Chester","name":"Home Depot Distribution Center","area":"Unknown","country":"United States","year_opened":null,"state":"Virginia","postal_code":"22602","owner":"Home Depot","id":403,"street_address":"Maranto Manor Drive","description":""}},{"geometry":{"type":"Point","coordinates":[-122.22,47.43]},"type":"Feature","id":"105258c145","clipped":true,"properties":{"city":"Kent","name":"Home Depot Distribution Center","area":"Unknown","country":"United States","year_opened":null,"state":"Washington","postal_code":"98031","owner":"Home Depot","id":404,"street_address":"8800 South 190th Street","description":""}},{"geometry":{"type":"Point","coordinates":[-122.75,47.07]},"type":"Feature","id":"cc8142a78a","clipped":true,"properties":{"city":"Lacey","name":"Home Depot Distribution Center","area":"Unknown","country":"United States","year_opened":null,"state":"Washington","postal_code":"98516","owner":"Home Depot","id":405,"street_address":"9303 Orion Drive Northeast","description":""}},{"geometry":{"type":"Point","coordinates":[-122.38,47.27]},"type":"Feature","id":"9812dcf6b4","clipped":true,"properties":{"city":"Coleman","name":"Home Depot Distribution Center","area":"Unknown","country":"United States","year_opened":null,"state":"Washington","postal_code":"98421","owner":"Home Depot","id":406,"street_address":"2301 Taylor Way","description":""}},{"geometry":{"type":"Point","coordinates":[-118.95,34.98]},"type":"Feature","id":"3e2eff693d","clipped":true,"properties":{"city":"Lebec","name":"IKEA Tejon DC","area":"Unknown","country":"United States","year_opened":null,"state":"California","postal_code":"93243","owner":"Ikea","id":407,"street_address":"4104 Industrial Parkway Drive","description":null}},{"geometry":{"type":"Point","coordinates":[-122.37,47.08]},"type":"Feature","id":"0415eb7a1c","clipped":true,"properties":{"city":"Spanaway","name":"IKEA Tacoma DC","area":"Unknown","country":"United States","year_opened":null,"state":"Washington","postal_code":"98387","owner":"Ikea","id":408,"street_address":"4604 196th Street East","description":null}},{"geometry":{"type":"Point","coordinates":[-76.06,39.56]},"type":"Feature","id":"8bd0a56afd","clipped":true,"properties":{"city":"Perry","name":"IKEA DC","area":"Unknown","country":"United States","year_opened":null,"state":"Maryland","postal_code":"21903","owner":"Ikea","id":409,"street_address":"100 Ikea Road","description":null}},{"geometry":{"type":"Point","coordinates":[-74.85,40.01]},"type":"Feature","id":"c632630ae9","clipped":true,"properties":{"city":"Estherville","name":"IKEA DC","area":"Unknown","country":"United States","year_opened":null,"state":"New Jersey","postal_code":"08060","owner":"Ikea","id":410,"street_address":"100 Ikea Drive","description":null}},{"geometry":{"type":"Point","coordinates":[-81.17,32.18]},"type":"Feature","id":"c003846252","clipped":true,"properties":{"city":"Port Wentworth","name":"IKEA Savannah DC","area":"Unknown","country":"United States","year_opened":null,"state":"Georgia","postal_code":"31407","owner":"Ikea","id":411,"street_address":"202 Little Hearst Parkway","description":null}},{"geometry":{"type":"Point","coordinates":[-73.42,45.46]},"type":"Feature","id":"e80b7003c8","clipped":true,"properties":{"city":"Brossard","name":"IKEA DC","area":"Unknown","country":"Canada","year_opened":null,"state":"Qu\u00e9bec","postal_code":"J4Z","owner":"Ikea","id":412,"street_address":"5405 Place de la Couronne","description":null}},{"geometry":{"type":"Point","coordinates":[-90.83,30.02]},"type":"Feature","id":"15b95d426f","clipped":true,"properties":{"city":null,"name":"true","area":"Unknown","country":null,"year_opened":null,"state":null,"postal_code":null,"owner":"Walmart","id":null,"street_address":null,"description":null}}]}