{"type":"FeatureCollection","features":[{"geometry":{"type":"Point","coordinates":[-91.6271,38.0101]},"type":"Feature","id":"66c639433b","clipped":true,"properties":{"city":"Ames","name":"Walmart Distribution Center","area":"1,200,000","country":"United States","year_opened":2001.0000,"state":"Missouri","postal_code":"65559","owner":"Walmart","id":22,"street_address":"Matlock Drive","description":null}},{"geometry":{"type":"Point","coordinates":[-90.0567,38.7766]},"type":"Feature","id":"ad22b96bd7","clipped":true,"properties":{"city":"Roseau","name":"Walgreen's Distribution Center","area":"Unknown","country":"United States","year_opened":null,"state":"Illinois","postal_code":"62084","owner":"Walgreens","id":260,"street_address":"28 Gateway Commerce Center Drive East","description":"Walgreens E-Commerce Distribution Centers; Walgreens Internet Fulfillment Centers"}},{"geometry":{"type":"Point","coordinates":[-90.2184,38.7323]},"type":"Feature","id":"0f1b48d231","clipped":true,"properties":{"city":"St. Louis","name":"Home Depot Distribution Center","area":"Unknown","country":"United States","year_opened":null,"state":"Missouri","postal_code":"63137","owner":"Home Depot","id":377,"street_address":"9215 Riverview Drive","description":null}}]}