{"type":"FeatureCollection","features":[{"geometry":{"type":"Point","coordinates":[-96.674,32.788]},"type":"Feature","id":"f0629b73eb","clipped":true,"properties":{"city":"Dallas","name":"Walmart Distribution Center","area":"77,000","country":"United States","year_opened":2010.000,"state":"Texas","postal_code":"75227","owner":"Walmart","id":173,"street_address":"5210 Catron Drive","description":"Americold operates this facility which is a public cold storage facility."}},{"geometry":{"type":"Point","coordinates":[-94.188,36.368]},"type":"Feature","id":"43f9eeb250","clipped":true,"properties":{"city":"Benton","name":"Walmart Distribution Center","area":"18,700","country":"United States","year_opened":1994.000,"state":"Arkansas","postal_code":"72712","owner":"Walmart","id":163,"street_address":"509 Southeast Martin Luther King Junior Parkway","description":null}},{"geometry":{"type":"Point","coordinates":[-92.454,39.433]},"type":"Feature","id":"0dc5624ee6","clipped":true,"properties":{"city":"Okeechobee","name":"Walmart Distribution Center","area":"450,000","country":"United States","year_opened":2002.000,"state":"Missouri","postal_code":"65270","owner":"Walmart","id":149,"street_address":"1309 U.S. 24","description":null}},{"geometry":{"type":"Point","coordinates":[-97.427,32.406]},"type":"Feature","id":"4e88833169","clipped":true,"properties":{"city":"Cleburne","name":"Walmart Distribution Center","area":"888,000","country":"United States","year_opened":2002.000,"state":"Texas","postal_code":"76033","owner":"Walmart","id":138,"street_address":"3470 Windmill Road","description":null}},{"geometry":{"type":"Point","coordinates":[-97.248,34.712]},"type":"Feature","id":"1e601fb565","clipped":true,"properties":{"city":"Pauls Valley","name":"Walmart Distribution Center","area":"860,000","country":"United States","year_opened":2000.000,"state":"Oklahoma","postal_code":"73075","owner":"Walmart","id":133,"street_address":"South Indian Meridian Road","description":null}},{"geometry":{"type":"Point","coordinates":[-95.902,36.583]},"type":"Feature","id":"ffa0e81cab","clipped":true,"properties":{"city":null,"name":"Walmart Distribution Center","area":"893,900","country":"United States","year_opened":2005.000,"state":"Oklahoma","postal_code":null,"owner":"Walmart","id":132,"street_address":"West 3000 Road","description":"Swisslog automation in the Perishables complex."}},{"geometry":{"type":"Point","coordinates":[-94.359,38.612]},"type":"Feature","id":"7f4d091a08","clipped":true,"properties":{"city":"Harrison","name":"Walmart Distribution Center","area":"850,000","country":"United States","year_opened":2001.000,"state":"Missouri","postal_code":"64701","owner":"Walmart","id":124,"street_address":"5100 South Brookhart Drive","description":null}},{"geometry":{"type":"Point","coordinates":[-93.530,35.433]},"type":"Feature","id":"29a20bbc8f","clipped":true,"properties":{"city":"Clarksville","name":"Walmart Distribution Center","area":"850,000","country":"United States","year_opened":1993.000,"state":"Arkansas","postal_code":"72830","owner":"Walmart","id":112,"street_address":"3300 Sterlin Hurley Ind Highway","description":"Originally a McLane's distribution center constructed to 750,000 sq ft."}},{"geometry":{"type":"Point","coordinates":[-94.345,35.322]},"type":"Feature","id":"07a7029b5c","clipped":true,"properties":{"city":"Fort Smith","name":"Walmart Distribution Center","area":"236,100","country":"United States","year_opened":1990.000,"state":"Arkansas","postal_code":"72903","owner":"Walmart","id":109,"street_address":"8100 Zero Street","description":"Footwear distribution center."}},{"geometry":{"type":"Point","coordinates":[-94.189,36.366]},"type":"Feature","id":"aff919eb33","clipped":true,"properties":{"city":"Benton","name":"Walmart Distribution Center","area":"705,600","country":"United States","year_opened":1980.000,"state":"Arkansas","postal_code":"72712","owner":"Walmart","id":102,"street_address":"2100 Southeast 5th Street","description":"Originally constructed to 390,000 sq ft and later expanded in 1981."}},{"geometry":{"type":"Point","coordinates":[-94.194,36.359]},"type":"Feature","id":"fc79d0c0f3","clipped":true,"properties":{"city":"Benton","name":"Walmart Distribution Center","area":"640,000","country":"United States","year_opened":1986.000,"state":"Arkansas","postal_code":"72712","owner":"Walmart","id":101,"street_address":"1110 Southeast 10th Street","description":"Walmart's 11th distribution center which also serves as a returns center, a jewelry distribution center, and a jewelry repair location for Sam's."}},{"geometry":{"type":"Point","coordinates":[-97.251,32.970]},"type":"Feature","id":"bf602db66b","clipped":true,"properties":{"city":"Fort Worth","name":"Walmart Distribution Center","area":"788,160","country":"United States","year_opened":2013.000,"state":"Texas","postal_code":"76177","owner":"Walmart","id":91,"street_address":"5300 Westport Parkway","description":"Dedicated Walmart.com distribution center. Outsourced to 3PL Ozburn-Hessey Logistics, LLC."}},{"geometry":{"type":"Point","coordinates":[-96.757,32.649]},"type":"Feature","id":"d4d9d34eda","clipped":true,"properties":{"city":"Dallas","name":"Walmart Distribution Center","area":"420,000","country":"United States","year_opened":2002.000,"state":"Texas","postal_code":"75241","owner":"Walmart","id":88,"street_address":"4130 Port Boulevard","description":"Outsourced to 3PL Exel Logistics. Tire Distribution Center."}},{"geometry":{"type":"Point","coordinates":[-94.970,35.915]},"type":"Feature","id":"702a8fbad0","clipped":true,"properties":{"city":"Tahlequah","name":"Walmart Distribution Center","area":"Unknown","country":"United States","year_opened":2013.000,"state":"Oklahoma","postal_code":"74464","owner":"Walmart","id":86,"street_address":"","description":"Walmart Refurb Center run by the Cherokee Nation. Refurb & certify smartphones, tablets and computer returns."}},{"geometry":{"type":"Point","coordinates":[-94.119,36.332]},"type":"Feature","id":"c313036d7d","clipped":true,"properties":{"city":"Rogers","name":"Walmart Distribution Center","area":"Unknown","country":"United States","year_opened":2013.000,"state":"Arkansas","postal_code":null,"owner":"Walmart","id":85,"street_address":"","description":"Walmart Refurb Center. Refurb & certify smartphones, tablets and computer returns."}},{"geometry":{"type":"Point","coordinates":[-94.223,36.378]},"type":"Feature","id":"a6631e7f6d","clipped":true,"properties":{"city":"Benton","name":"Walmart Distribution Center","area":"72,000","country":"United States","year_opened":2005.000,"state":"Arkansas","postal_code":"72712","owner":"Walmart","id":79,"street_address":"601 North Walton Boulevard","description":"Walmart Reclamation Center."}},{"geometry":{"type":"Point","coordinates":[-94.190,36.360]},"type":"Feature","id":"6f65e7f659","clipped":true,"properties":{"city":"Benton","name":"Walmart Distribution Center","area":"675,000","country":"United States","year_opened":null,"state":"Arkansas","postal_code":"72712","owner":"Walmart","id":78,"street_address":"1901 Southeast 10th Street","description":"Walmart & Sams Club Return Distribution Center."}},{"geometry":{"type":"Point","coordinates":[-94.195,36.368]},"type":"Feature","id":"f84a02f809","clipped":true,"properties":{"city":"Benton","name":"Walmart Distribution Center","area":"225,000","country":"United States","year_opened":1975.000,"state":"Arkansas","postal_code":"72712","owner":"Walmart","id":77,"street_address":"1102 Southeast 5th Street","description":"Originally constructed to 150,000 sq ft to serve as a redistribution center. Later expanded in 1981. This was the 2nd DC in the network. Currently serves as a Walmart Return Center with 400 associates."}},{"geometry":{"type":"Point","coordinates":[-94.195,36.359]},"type":"Feature","id":"70747087b8","clipped":true,"properties":{"city":"Benton","name":"Walmart Distribution Center","area":"390,000","country":"United States","year_opened":1997.000,"state":"Arkansas","postal_code":"72712","owner":"Walmart","id":76,"street_address":"1108 Southeast 10th Street","description":"Print Solutions Distribution Center which is an In-house plant dedicated to printing materials such as signage, training manuals, labels, guides, forms, etc. Originally constructed to 198,000 sf and expanded in 2007."}},{"geometry":{"type":"Point","coordinates":[-94.182,36.359]},"type":"Feature","id":"7ef5a92e9c","clipped":true,"properties":{"city":"Benton","name":"Walmart Distribution Center","area":"40,000","country":"United States","year_opened":2001.000,"state":"Arkansas","postal_code":"72712","owner":"Walmart","id":72,"street_address":"1201 Moberly Lane","description":"Pharmacy Distribution Center. Pharmacy Returns DC."}},{"geometry":{"type":"Point","coordinates":[-94.129,36.353]},"type":"Feature","id":"ee304b06fc","clipped":true,"properties":{"city":"Rogers","name":"Walmart Distribution Center","area":"150,000","country":"United States","year_opened":1976.000,"state":"Arkansas","postal_code":"72756","owner":"Walmart","id":71,"street_address":"2252 North 8th Street","description":"Started as a Redistribution DC in 1976 and converted into a VAWD accredited Pharmacy Distribution Center."}},{"geometry":{"type":"Point","coordinates":[-96.892,32.818]},"type":"Feature","id":"9435a8fcc2","clipped":true,"properties":{"city":"Dallas","name":"Walmart Distribution Center","area":"38,918","country":"United States","year_opened":2003.000,"state":"Texas","postal_code":"75247","owner":"Walmart","id":70,"street_address":"9029 Directors Row","description":"Optical Lab / Plant."}},{"geometry":{"type":"Point","coordinates":[-94.192,36.055]},"type":"Feature","id":"d12064f9f4","clipped":true,"properties":{"city":"Fayetteville","name":"Walmart Distribution Center","area":"64,500","country":"United States","year_opened":1987.000,"state":"Arkansas","postal_code":"72701","owner":"Walmart","id":69,"street_address":"2314 West 6th Street","description":"Optical Lab / Plant."}},{"geometry":{"type":"Point","coordinates":[-96.837,32.622]},"type":"Feature","id":"8b63a12a97","clipped":true,"properties":{"city":"DeSoto","name":"Walmart Distribution Center","area":"92,800","country":"United States","year_opened":null,"state":"Texas","postal_code":"75115","owner":"Walmart","id":64,"street_address":"830 East Centre Park Boulevard","description":"Owned and Operated."}},{"geometry":{"type":"Point","coordinates":[-94.676,39.094]},"type":"Feature","id":"625ab0d938","clipped":true,"properties":{"city":"Kansas City","name":"Walmart Distribution Center","area":"81,080","country":"United States","year_opened":1988.000,"state":"Kansas","postal_code":"66106","owner":"Walmart","id":57,"street_address":"233 South 42nd Street","description":"Sam's Crossdock facility formerly run by Wagner Industries up to May 2012."}},{"geometry":{"type":"Point","coordinates":[-91.696,35.242]},"type":"Feature","id":"827b1b4516","clipped":true,"properties":{"city":"Searcy","name":"Walmart Distribution Center","area":"682,700","country":"United States","year_opened":1978.000,"state":"Arkansas","postal_code":"72143","owner":"Walmart","id":44,"street_address":"3301 East Park Avenue","description":"Owned and Operated. Originally constructed as a 390,000 sq ft. Walmart's first DC outside of Bentonville and 4th DC. Expanded by 142,000 sq ft in 1981 and again in 1990 and then converted into a Sams Collectables DC in 1994."}},{"geometry":{"type":"Point","coordinates":[-97.172,33.399]},"type":"Feature","id":"0d1bb8a513","clipped":true,"properties":{"city":"Sanger","name":"Walmart Distribution Center","area":"1,200,000","country":"United States","year_opened":2001.000,"state":"Texas","postal_code":"76266","owner":"Walmart","id":36,"street_address":"2120 North Stemmons Street","description":null}},{"geometry":{"type":"Point","coordinates":[-96.334,32.731]},"type":"Feature","id":"97e2e7b678","clipped":true,"properties":{"city":"Terrell","name":"Walmart Distribution Center","area":"420,000","country":"United States","year_opened":2000.000,"state":"Texas","postal_code":"75160","owner":"Walmart","id":151,"street_address":"591 Apache Trail","description":null}},{"geometry":{"type":"Point","coordinates":[-91.627,38.010]},"type":"Feature","id":"66c639433b","clipped":true,"properties":{"city":"Ames","name":"Walmart Distribution Center","area":"1,200,000","country":"United States","year_opened":2001.000,"state":"Missouri","postal_code":"65559","owner":"Walmart","id":22,"street_address":"Matlock Drive","description":null}},{"geometry":{"type":"Point","coordinates":[-95.207,38.620]},"type":"Feature","id":"137f08b7e5","clipped":true,"properties":{"city":"Ottawa","name":"Walmart Distribution Center","area":"1,200,000","country":"United States","year_opened":1995.000,"state":"Kansas","postal_code":"66067","owner":"Walmart","id":18,"street_address":"3270 Nevada Terrace","description":null}},{"geometry":{"type":"Point","coordinates":[-91.526,40.975]},"type":"Feature","id":"0834e2c470","clipped":true,"properties":{"city":"Mount Pleasant","name":"Walmart Distribution Center","area":"1,244,000","country":"United States","year_opened":1985.000,"state":"Iowa","postal_code":"52641","owner":"Walmart","id":15,"street_address":"1100 North Iris Street","description":"Walmart's 8th distribution center was originally built to 650,000 sq ft and was later expanded in 1987."}},{"geometry":{"type":"Point","coordinates":[-91.730,35.224]},"type":"Feature","id":"6202649478","clipped":true,"properties":{"city":"Searcy","name":"Walmart Distribution Center","area":"1,100,000","country":"United States","year_opened":1990.000,"state":"Arkansas","postal_code":"72143","owner":"Walmart","id":3,"street_address":"405 East Booth Road","description":null}},{"geometry":{"type":"Point","coordinates":[-94.263,36.322]},"type":"Feature","id":"b6d09ecf54","clipped":true,"properties":{"city":"Benton","name":"Walmart Distribution Center","area":"1,200,000","country":"United States","year_opened":null,"state":"Arkansas","postal_code":"72712","owner":"Walmart","id":2,"street_address":"5841 Southwest Regional Airport Boulevard","description":"12 miles of conveyors."}},{"geometry":{"type":"Point","coordinates":[-97.332,32.682]},"type":"Feature","id":"5da9fe7c57","clipped":true,"properties":{"city":"Fort Worth","name":"Target Distribution Center","area":"Unknown","country":"United States","year_opened":null,"state":"Texas","postal_code":"76115","owner":"Target","id":198,"street_address":"4464 Hemphill Street","description":null}},{"geometry":{"type":"Point","coordinates":[-95.684,38.979]},"type":"Feature","id":"630561b42b","clipped":true,"properties":{"city":"Topeka","name":"Target Distribution Center","area":"Unknown","country":"United States","year_opened":null,"state":"Kansas","postal_code":"66609","owner":"Target","id":188,"street_address":"Landon Nature Trail","description":null}},{"geometry":{"type":"Point","coordinates":[-96.994,32.482]},"type":"Feature","id":"c1a299dbdf","clipped":true,"properties":{"city":"Midlothian","name":"Target Distribution Center","area":"Unknown","country":"United States","year_opened":null,"state":"Texas","postal_code":"76065","owner":"Target","id":186,"street_address":"100 North 8th Street","description":null}},{"geometry":{"type":"Point","coordinates":[-95.444,32.469]},"type":"Feature","id":"ee77be4cb7","clipped":true,"properties":{"city":"Tyler","name":"Target Distribution Center","area":"Unknown","country":"United States","year_opened":null,"state":"Texas","postal_code":"75704","owner":"Target","id":183,"street_address":"Interstate 20","description":null}},{"geometry":{"type":"Point","coordinates":[-96.957,32.644]},"type":"Feature","id":"b37b52221d","clipped":true,"properties":{"city":"Dallas","name":"Costco Distribution Center","area":"Unknown","country":"United States","year_opened":null,"state":"Texas","postal_code":"75249","owner":"Costco","id":242,"street_address":"Florina Parkway","description":null}},{"geometry":{"type":"Point","coordinates":[-97.593,37.662]},"type":"Feature","id":"79ae55402a","clipped":true,"properties":{"city":"Goddard","name":"Dillons Distribution Center","area":"Unknown","country":"United States","year_opened":null,"state":"Kansas","postal_code":"67052","owner":"Krogers","id":219,"street_address":"21999 U.S. 54","description":null}},{"geometry":{"type":"Point","coordinates":[-97.882,38.060]},"type":"Feature","id":"4b5c392ed7","clipped":true,"properties":{"city":"Hutchinson","name":"Dillons Distribution Center","area":"Unknown","country":"United States","year_opened":null,"state":"Kansas","postal_code":"67501","owner":"Krogers","id":218,"street_address":"2700 East 4th Avenue","description":null}},{"geometry":{"type":"Point","coordinates":[-97.885,38.058]},"type":"Feature","id":"ed37a00f1b","clipped":true,"properties":{"city":"Hutchinson","name":"Central Bakery","area":"Unknown","country":"United States","year_opened":null,"state":"Kansas","postal_code":"67501","owner":"Krogers","id":217,"street_address":"2516 East 4th Avenue","description":null}},{"geometry":{"type":"Point","coordinates":[-98.666,36.783]},"type":"Feature","id":"20cf3c7079","clipped":true,"properties":{"city":"Alva","name":"Walgreen's Distribution Center","area":"Unknown","country":"United States","year_opened":null,"state":"Oklahoma","postal_code":"73717","owner":"Walgreens","id":255,"street_address":"2020 6th Street","description":"Walgreens Distribution Center; c/o Laney & Duke, Puerto Rico Consolidation DC"}},{"geometry":{"type":"Point","coordinates":[-91.466,34.578]},"type":"Feature","id":"2b541f987e","clipped":true,"properties":{"city":"Stuttgart","name":"Walgreen's Distribution Center","area":"Unknown","country":"United States","year_opened":null,"state":"Arkansas","postal_code":"72160","owner":"Walgreens","id":249,"street_address":"1130 Commerce","description":"Walgreens E-Commerce Distribution Centers; East Coast DC"}},{"geometry":{"type":"Point","coordinates":[-96.869,32.434]},"type":"Feature","id":"a2a012b400","clipped":true,"properties":{"city":"Whitefield","name":"Walgreen's Distribution Center","area":"Unknown","country":"United States","year_opened":null,"state":"Texas","postal_code":"75167","owner":"Walgreens","id":267,"street_address":"710 Ovilla Road","description":"Walgreens Distribution Center; "}},{"geometry":{"type":"Point","coordinates":[-90.057,38.777]},"type":"Feature","id":"ad22b96bd7","clipped":true,"properties":{"city":"Roseau","name":"Walgreen's Distribution Center","area":"Unknown","country":"United States","year_opened":null,"state":"Illinois","postal_code":"62084","owner":"Walgreens","id":260,"street_address":"28 Gateway Commerce Center Drive East","description":"Walgreens E-Commerce Distribution Centers; Walgreens Internet Fulfillment Centers"}},{"geometry":{"type":"Point","coordinates":[-97.020,32.733]},"type":"Feature","id":"8b667df95b","clipped":true,"properties":{"city":"Rice Lake","name":"Home Depot Distribution Center","area":"Unknown","country":"United States","year_opened":null,"state":"Texas","postal_code":"75051","owner":"Home Depot","id":397,"street_address":"1102 Highway 161","description":""}},{"geometry":{"type":"Point","coordinates":[-96.847,32.633]},"type":"Feature","id":"835b95a073","clipped":true,"properties":{"city":"Dallas","name":"Home Depot Rapid Deployment Center","area":"Unknown","country":"United States","year_opened":null,"state":"Texas","postal_code":"75232","owner":"Home Depot","id":395,"street_address":"2315 Danieldale Road","description":""}},{"geometry":{"type":"Point","coordinates":[-96.465,32.120]},"type":"Feature","id":"17a0cd5754","clipped":true,"properties":{"city":"Corsicana","name":"Home Depot Distribution Center","area":"Unknown","country":"United States","year_opened":null,"state":"Texas","postal_code":"75110","owner":"Home Depot","id":394,"street_address":"2200 Business Interstate 45-F","description":""}},{"geometry":{"type":"Point","coordinates":[-96.851,32.634]},"type":"Feature","id":"b3b9ccecd5","clipped":true,"properties":{"city":"Dallas","name":"Home Depot Distribution Center","area":"Unknown","country":"United States","year_opened":null,"state":"Texas","postal_code":"75232","owner":"Home Depot","id":393,"street_address":"2320 Beckleymeade Avenue","description":""}},{"geometry":{"type":"Point","coordinates":[-95.699,38.973]},"type":"Feature","id":"0ca78582f2","clipped":true,"properties":{"city":"Topeka","name":"Home Depot Rapid Deployment Center","area":"Unknown","country":"United States","year_opened":null,"state":"Kansas","postal_code":"66609","owner":"Home Depot","id":369,"street_address":"5200 Southwest Wenger Street","description":""}},{"geometry":{"type":"Point","coordinates":[-97.040,32.898]},"type":"Feature","id":"43bc0a7d27","clipped":true,"properties":{"city":null,"name":"Amazon Distribution Center #DFW1","area":"Unknown","country":"United States","year_opened":null,"state":"Texas","postal_code":"75261","owner":"Amazon","id":328,"street_address":"3200 East Airfield Drive","description":null}},{"geometry":{"type":"Point","coordinates":[-97.043,32.818]},"type":"Feature","id":"15db472df6","clipped":true,"properties":{"city":"Fort Worth","name":"Amazon Distribution Center #XUSB","area":"Unknown","country":"United States","year_opened":null,"state":"Texas","postal_code":"76155","owner":"Amazon","id":327,"street_address":"14900 Frye Road","description":null}},{"geometry":{"type":"Point","coordinates":[-97.335,32.972]},"type":"Feature","id":"ef4c027fbf","clipped":true,"properties":{"city":"Fort Worth","name":"Amazon Distribution Center #DFW7","area":"Unknown","country":"United States","year_opened":null,"state":"Texas","postal_code":"76177","owner":"Amazon","id":326,"street_address":"700 Westport Parkway","description":null}},{"geometry":{"type":"Point","coordinates":[-97.017,32.956]},"type":"Feature","id":"bcac928ae9","clipped":true,"properties":{"city":"Coppell","name":"Amazon Distribution Center #DFW6","area":"Unknown","country":"United States","year_opened":null,"state":"Texas","postal_code":"75019","owner":"Amazon","id":325,"street_address":"940 West Bethel Road","description":null}},{"geometry":{"type":"Point","coordinates":[-95.616,37.014]},"type":"Feature","id":"9768a6e1b5","clipped":true,"properties":{"city":"Coffeyville","name":"Amazon Distribution Center #TUL1","area":"Unknown","country":"United States","year_opened":null,"state":"Kansas","postal_code":"67337","owner":"Amazon","id":289,"street_address":"2654 U.S. 169","description":null}},{"geometry":{"type":"Point","coordinates":[-94.219,36.367]},"type":"Feature","id":"ea380c8ad4","clipped":true,"properties":{"city":"Benton","name":"Walmart Distribution Center","area":"236,800","country":"United States","year_opened":1970.000,"state":"Arkansas","postal_code":"72712","owner":"Walmart","id":93,"street_address":"702 Southwest 8th Street","description":"Walmart's first ever distribution center opened in 1970 as a General Merchandise & Fashion facility. Originally 60,000 sq ft; expanded to 124,800 in 1971; expanded again to 236,800 sq ft in 1972. Closed and converted into head office space in 1986."}},{"geometry":{"type":"Point","coordinates":[-90.218,38.732]},"type":"Feature","id":"0f1b48d231","clipped":true,"properties":{"city":"St. Louis","name":"Home Depot Distribution Center","area":"Unknown","country":"United States","year_opened":null,"state":"Missouri","postal_code":"63137","owner":"Home Depot","id":377,"street_address":"9215 Riverview Drive","description":null}}]}